     2.10           OBSERVATION DATA    G (GPS)             RINEX VERSION / TYPE
teqc  2006Sep26                         20090414 07:02:02UTCPGM / RUN BY / DATE
MSXP|IAx86-PII|bcc32 5.0|MSWin95->XP|486/DX+                COMMENT
     2.00           OBSERVATION DATA    G (GPS)             COMMENT
teqc  1999Jul19     autorun             20090102 05:11:02UTCCOMMENT
MSWinNT 4.0|PentPro|wcl386 10.6|MSWin95/98/NT|486/DX+       COMMENT
BIT 2 OF LLI FLAGS DATA COLLECTED UNDER A/S CONDITION       COMMENT
BJFS                                                        MARKER NAME
21601M001                                                   MARKER NUMBER
QUFENG              CASM                                    OBSERVER / AGENCY
3332                ASHTECH Z-XII3      CD00-1D02           REC # / TYPE / VERS
1126                ASH700936B_M    SNOW                    ANT # / TYPE
-2148743.1480  4426638.5300  4044654.6100                   APPROX POSITION XYZ
        0.0460        0.0000        0.0000                  ANTENNA: DELTA H/E/N
     1     1                                                WAVELENGTH FACT L1/2
     4    P1    P2    L1    L2                              # / TYPES OF OBSERV
    30.0000                                                 INTERVAL
 SNR is mapped to RINEX snr flag value [1-9]                COMMENT
  L1: 1 -> 1;  90 -> 5; 210 -> 9                            COMMENT
  L2: 1 -> 1; 150 -> 5; 250 -> 9                            COMMENT
  2009     1     1     0     0   30.0000000     GPS         TIME OF FIRST OBS
                                                            END OF HEADER
 09  1  1  0 15  0.0000000  0  9G25G 3G19G28G 7G 6G 8G27G11
  21409884.885    21409886.552   -18218505.41749 -14156765.21847
  22779739.724    22779742.899   -12881052.74249  -9981078.38546
  20867475.457    20867476.161   -22606885.21949 -17584311.66248
  24156162.896    24156164.295    -9137300.88149  -7063629.00045
  20564496.295    20564497.823   -25421945.20949 -19783981.73848
  24176957.641    24176961.215    -1738222.83949  -1320668.20745
  21416809.311    21416811.914   -20697466.58249 -16090461.96047
  22344266.896    22344269.610   -19053924.92949 -14810311.16047
  21100000.184    21100001.737   -23557148.79349 -18282149.24247
 09  1  1  0 15 30.0000000  0  9G25G 3G19G28G 7G 6G 8G27G11
  21422240.412    21422242.448   -18153576.46449 -14106171.24947
  22797090.333    22797092.769   -12789875.10349  -9910030.91146
  20877559.127    20877559.752   -22553894.69449 -17543020.34048
  24140701.670    24140703.107    -9218548.58649  -7126938.88745
  20570389.855    20570391.471   -25390974.64049 -19759848.83848
  24193831.699    24193835.221    -1649551.65649  -1251573.82745
  21405142.648    21405144.647   -20758776.85649 -16138236.19847
  22333515.829    22333518.544   -19110424.47349 -14854336.77947
  21085755.545    21085757.013   -23632004.04049 -18340478.00247
 09  1  1  0 16  0.0000000  0  9G25G 3G19G28G 7G 6G 8G27G11
  21434678.321    21434680.463   -18088214.11149 -14055239.55747
  22814456.201    22814459.471   -12698614.50049  -9838918.77746
  20887696.908    20887697.514   -22500621.04249 -17501508.40548
  24125238.105    24125240.113    -9299809.77549  -7190259.29845
  20576395.268    20576396.933   -25359416.18849 -19735257.84948
  24210706.806    24210709.834    -1560872.54249  -1182473.25045
  21393574.467    21393576.994   -20819565.09549 -16185603.65847
  22322844.177    22322846.956   -19166504.75749 -14898035.69847
  21071594.339    21071595.896   -23706421.30449 -18398465.47247
 09  1  1  0 16 30.0000000  0  9G25G 3G19G28G 7G 6G 8G27G11
  21447198.404    21447200.840   -18022420.48649 -14003971.81247
  22831838.137    22831841.232   -12607271.75649  -9767742.63846
  20897888.113    20897888.719   -22447066.45149 -17459777.55548
  24109772.172    24109774.191    -9381084.18349  -7253590.00645
  20582512.173    20582513.916   -25327270.84749 -19710209.53848
  24227582.664    24227585.241    -1472186.90649  -1113367.61445
  21382106.835    21382109.213   -20879829.14249 -16232562.65547
  22312252.299    22312255.176   -19222163.93549 -14941406.48847
  21057517.014    21057518.527   -23780398.48049 -18456110.02047
 09  1  1  0 17  0.0000000  0  9G25G 3G19G28G 7G 6G 8G27G11
  21459800.449    21459802.802   -17956197.14149 -13952369.22447
  22849236.323    22849238.232   -12515848.17249  -9696503.50746
  20908132.231    20908132.846   -22393232.30949 -17417828.88848
  24094303.871    24094305.927    -9462370.56449  -7316930.02745
  20588741.291    20588742.559   -25294538.53849 -19684703.85448
  24244460.379    24244462.800    -1383495.33749  -1044257.33145
  21370739.425    21370741.963   -20939566.06049 -16279110.90647
  22301741.126    22301744.094   -19277399.67149 -14984447.32547
  21043523.722    21043525.291   -23853933.27049 -18513409.85647
 09  1  1  0 17 30.0000000  0  9G25G 3G19G28G 7G 6G 8G27G11
  21472483.529    21472485.682   -17889546.96349 -13900434.03947
  22866648.209    22866650.434   -12424346.33249  -9625203.38946
  20918429.113    20918429.966   -22339121.57949 -17375664.68848
  24078832.871    24078833.786    -9543669.63149  -7380279.94645
  20595081.002    20595082.573   -25261221.57849 -19658742.60048
  24261337.615    24261342.177    -1294799.64249   -975143.84045
  21359472.385    21359474.964   -20998774.26649 -16325247.17347
  22291311.017    22291314.107   -19332211.08149 -15027157.52247
  21029614.881    21029616.254   -23927024.58549 -18570364.12247
 09  1  1  0 18  0.0000000  0  9G25G 3G19G28G 7G 6G 8G27G11
  21485247.792    21485250.007   -17822470.54749 -13848166.71747
  22884075.804    22884078.094   -12332766.20549  -9553842.28546
  20928778.998    20928779.478   -22284734.58949 -17333285.22048
  24063360.882    24063360.989    -9624978.91049  -7443637.83145
  20601532.446    20601533.957   -25227319.38549 -19632325.31748
  24278217.520    24278220.226    -1206099.47549   -906026.88245
  21348306.615    21348309.295   -21057449.86849 -16370968.41547
  22280962.481    22280965.140   -19386594.83949 -15069534.47547
  21015790.941    21015792.518   -23999668.82649 -18626970.02247
 09  1  1  0 18 30.0000000  0  9G25G 3G19G28G 7G 6G 8G27G11
  21498092.700    21498094.786   -17754971.31949 -13795569.94147
  22901516.170    22901518.997   -12241110.52649  -9482422.30746
  20939180.387    20939180.900   -22230074.72249 -17290693.12148
  24047886.015    24047887.446    -9706299.70249  -7507004.69045
  20608094.663    20608096.235   -25192834.43949 -19605453.94248
  24295097.004    24295099.015    -1117397.31949   -836908.35145
  21337242.624    21337245.057   -21115591.94949 -16416273.94047
  22270695.039    22270697.375   -19440550.45449 -15111577.81647
  21002052.472    21002054.029   -24071865.44749 -18683227.12747
 09  1  1  0 19  0.0000000  0  9G25G 3G19G28G 7G 6G 8G27G11
  21511016.933    21511019.465   -17687051.76549 -13742645.63547
  22918972.096    22918975.355   -12149380.89449  -9410944.69246
  20949633.161    20949633.747   -22175144.18649 -17247890.11448
  24032409.259    24032410.273    -9787631.58449  -7570380.16245
  20614767.503    20614769.230   -25157768.13549 -19578129.55848
  24311976.309    24311979.447    -1028694.52349   -767789.33345
  21326280.323    21326283.246   -21173198.42449 -16461162.11247
  22260509.440    22260512.126   -19494076.62449 -15153286.53047
  20988399.323    20988400.674   -24143613.08849 -18739134.37547
 09  1  1  0 19 30.0000000  0  9G25G 3G19G28G 7G 6G 8G27G11
  21524021.630    21524023.968   -17618712.22049 -13689394.06147
  22936441.932    22936444.924   -12057577.64049  -9339409.71045
  20960137.379    20960138.277   -22119943.15649 -17204876.32847
  24016931.065    24016932.142    -9868972.26149  -7633762.52045
  20621551.147    20621552.674   -25122120.10349 -19550351.88048
  24328856.933    24328860.104     -939990.41949   -698669.26945
  21315420.881    21315423.779   -21230265.57649 -16505630.02447
  22250405.835    22250408.665   -19547169.64549 -15194657.71947
  20974832.486    20974833.843   -24214908.09149 -18794688.92147
 09  1  1  0 20  0.0000000  0  9G25G 3G19G28G 7G 6G 8G27G11
  21537105.742    21537107.941   -17549954.63649 -13635816.74047
  22953925.528    22953927.719   -11965701.74849  -9267818.13645
  20970692.921    20970693.702   -22064473.48549 -17161653.21647
  24001450.202    24001451.911    -9950320.76449  -7697150.97445
  20628445.384    20628446.933   -25085890.93149 -19522121.36748
  24345736.867    24345739.465     -851285.77649   -629548.80645
  21304664.658    21304667.312   -21286791.19749 -16549675.96847
  22240385.242    22240388.206   -19599827.77249 -15235690.03647
  20961352.138    20961353.375   -24285748.33149 -18849889.10347
 09  1  1  0 20 30.0000000  0  9G25G 3G19G28G 7G 6G 8G27G11
  21550268.939    21550271.562   -17480781.27849 -13581915.43847
  22971422.675    22971424.888   -11873754.44149  -9196170.90345
  20981299.189    20981300.105   -22008737.17049 -17118222.33147
  23985968.919    23985971.428   -10031676.94349  -7760545.38745
  20635449.915    20635451.296   -25049082.06049 -19493439.14148
  24362616.621    24362619.877     -762581.89749   -560428.93045
  21294011.652    21294014.312   -21342772.77449 -16593297.98147
  22230447.841    22230450.986   -19652049.06549 -15276381.95447
  20947958.400    20947959.959   -24356131.97749 -18904733.49847
 09  1  1  0 21  0.0000000  0  9G25G 3G19G28G 7G 6G 8G27G11
  21563510.952    21563513.435   -17411193.71649 -13527691.38347
  22988932.083    22988935.675   -11781736.96949  -9124468.99945
  20991955.971    20991956.839   -21952735.68049 -17074584.80947
  23970485.238    23970487.770   -10113039.68149  -7823944.92045
  20642564.650    20642565.920   -25011694.48649 -19464305.97748
  24379496.016    24379498.958     -673879.00249   -491309.83645
  21283462.585    21283465.323   -21398207.39549 -16636493.79447
  22220593.993    22220597.288   -19703831.24149 -15316731.70847
  20934652.052    20934653.833   -24426056.59349 -18959220.21347
 09  1  1  0 21 30.0000000  0  9G25G 3G19G28G 7G 6G 8G27G11
  21576831.450    21576833.907   -17341194.67449 -13473146.68947
  23006455.073    23006458.869   -11689651.39949  -9052714.03945
  21002662.669    21002663.444   -21896471.50949 -17030742.59847
  23955001.917    23955003.783   -10194408.95349  -7887349.55545
  20649789.168    20649790.448   -24973729.61849 -19434722.97148
  24396374.391    24396378.391     -585178.83249   -422192.85545
  21273018.206    21273020.837   -21453093.24149 -16679261.99247
  22210824.086    22210826.860   -19755173.39149 -15356738.58647
  20921433.453    20921435.098   -24495520.83449 -19013348.18747
 09  1  1  0 22  0.0000000  0  9G25G 3G19G28G 7G 6G 8G27G11
  21590229.655    21590232.342   -17270785.71449 -13418282.58447
  23023991.732    23023995.137   -11597498.25649  -8980906.40945
  21013419.193    21013419.840   -21839945.86749 -16986696.64547
  23939516.917    23939517.958   -10275783.53149  -7950758.32745
  20657123.201    20657124.795   -24935187.87049 -19404690.44948
  24413254.176    24413258.089     -496481.85349   -353078.36145
  21262678.844    21262681.486   -21507427.52449 -16721600.40747
  22201138.272    22201141.311   -19806073.05149 -15396400.67047
  20908302.933    20908304.795   -24564522.46049 -19067115.68447
 09  1  1  0 22 30.0000000  0  9G25G 3G19G28G 7G 6G 8G27G11
  21603705.686    21603708.125   -17199969.54849 -13363101.17347
  23041540.683    23041543.468   -11505279.48849  -8909047.66745
  21024225.002    21024225.738   -21783161.15049 -16942448.81747
  23924030.748    23924033.053   -10357163.31849  -8014171.14345
  20664566.838    20664568.417   -24896071.23549 -19374209.96048
  24430131.322    24430134.450     -407789.46649   -283967.46345
  21252444.589    21252447.307   -21561208.75049 -16763507.85947
  22191536.789    22191539.228   -19856529.09349 -15435717.07447
  20895260.492    20895262.338   -24633060.13849 -19120521.66147
 09  1  1  0 23  0.0000000  0  9G25G 3G19G28G 7G 6G 8G27G11
  21617258.164    21617261.317   -17128748.28249 -13307604.10047
  23059101.986    23059104.296   -11412996.75949  -8837139.06745
  21035079.617    21035080.511   -21726119.30849 -16898000.64247
  23908544.489    23908545.715   -10438547.39849  -8077587.30345
  20672119.719    20672121.282   -24856380.95449 -19343282.47948
  24447007.839    24447010.851     -319102.53649   -214860.78345
  21242316.041    21242318.974   -21614434.71149 -16804982.64547
  22182019.727    22182022.596   -19906539.63249 -15474686.33347
  20882307.030    20882308.672   -24701131.63049 -19173564.37747
 09  1  1  0 23 30.0000000  0  9G25G 3G19G28G 7G 6G 8G27G11
  21630888.737    21630890.852   -17057123.23849 -13251792.39747
  23076675.130    23076678.077   -11320650.18049  -8765180.72945
  21045982.949    21045983.946   -21668821.31849 -16853352.86147
  23893056.821    23893058.157   -10519934.61249  -8141005.91045
  20679781.665    20679783.350   -24816117.43849 -19311908.31948
  24463882.646    24463885.299     -230421.30649   -145758.58945
  21232293.499    21232296.627   -21667102.31449 -16846022.34447
  22172588.856    22172591.537   -19956102.15649 -15513306.49247
  20869442.755    20869444.230   -24768734.59149 -19226242.00547
 09  1  1  0 24  0.0000000  0  9G25G 3G19G28G 7G 6G 8G27G11
  21644594.709    21644596.971   -16985097.20649 -13195668.23047
  23094259.517    23094262.712   -11228241.68849  -8693174.13045
  21056934.847    21056935.722   -21611269.63349 -16808507.40247
  23877568.883    23877570.035   -10601324.63349  -8204426.70845
  20687552.346    20687553.797   -24775282.62549 -19280088.99748
  24480755.685    24480761.972     -141747.20149    -76661.92545
  21222377.894    21222381.058   -21719209.92749 -16886625.67947
  22163242.736    22163245.696   -20005215.29349 -15551576.47847
  20856667.819    20856669.336   -24835867.59949 -19278553.43447
 09  1  1  0 24 30.0000000  0  9G25G 3G19G28G 7G 6G 8G27G11
  21658376.888    21658379.425   -16912671.88949 -13139232.93847
  23111856.315    23111857.955   -11135772.44449  -8621120.19845
  21067934.413    21067935.390   -21553465.57749 -16763465.28447
  23862079.836    23862080.539   -10682716.40049  -8267848.85545
  20695431.551    20695433.109   -24733877.37149 -19247825.17448
  24497630.014    24497633.394      -53080.72649     -7571.19645
  21212569.074    21212572.104   -21770754.84649 -16926790.56247
  22153982.537    22153985.326   -20053876.93649 -15589494.64747
  20843982.671    20843984.043   -24902528.69749 -19330497.14047
 09  1  1  0 25  0.0000000  0  9G25G 3G19G28G 7G 6G 8G27G11
  21672234.524    21672236.599   -16839849.61949 -13082488.33447
  23129462.886    23129465.942   -11043244.02849  -8549020.17345
  21078981.795    21078982.717   -21495411.18749 -16718228.10847
  23846592.078    23846593.372   -10764109.49249  -8331272.04345
  20703419.071    20703420.526   -24691902.91249 -19215117.81448
  24514502.123    24514503.263       35577.25949     61512.90145
  21202868.000    21202871.025   -21821735.07249 -16966515.42047
  22144808.978    22144811.542   -20102085.70649 -15627059.93147
  20831387.521    20831389.239   -24968716.13649 -19382071.75547
 09  1  1  0 25 30.0000000  0  9G25G 3G19G28G 7G 6G 8G27G11
  21686167.229    21686169.605   -16766632.20449 -13025435.82447
  23147081.599    23147085.034   -10950656.95949  -8476874.43245
  21090076.634    21090077.466   -21437107.97049 -16672797.03247
  23831103.061    23831104.491   -10845502.58349  -8394695.22545
  20711514.547    20711516.115   -24649360.09249 -19181967.57048
  24531369.976    24531374.326      124226.09849    130589.86644
  21193274.791    21193277.794   -21872148.01549 -17005798.23847
  22135721.639    22135724.759   -20149839.32249 -15664270.54747
  20818883.057    20818884.566   -25034427.34349 -19433275.28847
 09  1  1  0 26  0.0000000  0  9G25G 3G19G28G 7G 6G 8G27G11
  21700174.941    21700177.188   -16693021.85749 -12968077.13247
  23164712.183    23164715.221   -10858012.76749  -8404684.18945
  21101218.540    21101219.505   -21378557.81349 -16627173.54547
  23815614.253    23815615.339   -10926894.83849  -8458117.75545
  20719717.918    20719719.474   -24606250.56449 -19148375.74148
  24548238.758    24548241.211      212864.98749    199659.07844
  21183789.837    21183792.719   -21921991.40249 -17044637.24547
  22126721.539    22126724.322   -20197136.08749 -15701125.17047
  20806469.701    20806471.161   -25099660.59449 -19484106.38347
 09  1  1  0 26 30.0000000  0  9G25G 3G19G28G 7G 6G 8G27G11
  21714256.223    21714258.672   -16619023.39949 -12910416.02147
  23182351.702    23182354.064   -10765315.06549  -8332452.24945
  21112406.435    21112407.180   -21319764.89149 -16581360.88147
  23800125.776    23800127.039   -11008288.48849  -8521541.38845
  20728028.764    20728030.089   -24562578.28349 -19114345.39948
  24565104.152    24565107.923      301490.32949    268717.73644
  21174413.319    21174416.265   -21971266.03249 -17083033.06447
  22117807.990    22117810.878   -20243976.86949 -15737624.48747
  20794146.942    20794148.362   -25164417.26149 -19534566.11147
 09  1  1  0 27  0.0000000  0  9G25G 3G19G28G 7G 6G 8G27G11
  21728411.764    21728414.420   -16544634.75849 -12852450.85647
  23200001.233    23200005.481   -10672561.04849  -8260176.42945
  21123641.277    21123641.763   -21260726.64749 -16535357.05647
  23784637.658    23784639.531   -11089678.26849  -8584961.98445
  20736446.877    20736448.296   -24518340.28249 -19079874.23847
  24581964.750    24581966.977      390105.69948    337768.59744
  21165146.044    21165148.971   -22019965.37149 -17120980.60947
  22108982.370    22108985.278   -20290355.67849 -15773763.82547
  20781915.919    20781917.424   -25228690.94349 -19584649.49247
 09  1  1  0 27 30.0000000  0  9G25G 3G19G28G 7G 6G 8G27G11
  21742641.323    21742643.863   -16469859.63049 -12794184.55447
  23217661.737    23217665.422   -10579753.42649  -8187858.83345
  21134921.838    21134922.419   -21201446.60349 -16489164.81847
  23769150.260    23769152.382   -11171064.92049  -8648380.16345
  20744972.045    20744973.581   -24473539.68349 -19044964.69247
  24598826.757    24598828.609      478708.71449    406809.85844
  21155988.524    21155991.276   -22068088.63549 -17158479.26547
  22100244.649    22100247.456   -20336272.63549 -15809543.28047
  20769776.993    20769778.763   -25292481.22149 -19634356.19647
 09  1  1  0 28  0.0000000  0  9G25G 3G19G28G 7G 6G 8G27G11
  21756943.461    21756945.841   -16394699.93449 -12735618.57647
  23235333.483    23235336.021   -10486893.05649  -8115500.13345
  21146248.057    21146248.632   -21141926.27649 -16442785.34747
  23753663.551    23753665.865   -11252447.31949  -8711795.02045
  20753604.359    20753605.818   -24428177.33649 -19009617.41447
  24615684.236    24615686.850      567299.00949    475841.23544
  21146941.177    21146943.937   -22115633.38349 -17195527.12347
  22091595.187    22091597.947   -20381725.52549 -15844961.11847
  20757730.462    20757732.002   -25355786.08949 -19683684.65447
 09  1  1  0 28 30.0000000  0  9G25G 3G19G28G 7G 6G 8G27G11
  21771318.750    21771320.816   -16319158.61849 -12676755.23647
  23253013.684    23253017.237   -10393981.88349  -8043101.86345
  21157619.635    21157620.309   -21082168.07849 -16396220.52047
  23738178.101    23738180.006   -11333825.43349  -8775206.54345
  20762343.099    20762344.568   -24382255.08849 -18973833.86047
  24632540.517    24632544.050      655874.95249    544861.37044
  21138003.884    21138006.715   -22162598.13849 -17232123.04147
  22083034.283    22083037.340   -20426713.32749 -15880016.55647
  20745776.628    20745777.988   -25418604.49049 -19732634.05747
 09  1  1  0 29  0.0000000  0  9G25G 3G19G28G 7G 6G 8G27G11
  21785765.838    21785768.229   -16243237.84049 -12617596.19847
  23270704.347    23270706.444   -10301020.59849  -7970664.52845
  21169036.331    21169037.016   -21022173.30449 -16349471.35047
  23722693.131    23722695.519   -11415198.53749  -8838614.15645
  20771187.936    20771189.389   -24335774.48849 -18937615.21647
  24649392.990    24649396.048      744435.85549    613869.85544
  21129177.815    21129180.627   -22208980.97049 -17268265.51147
  22074562.418    22074565.427   -20471234.08049 -15914708.05547
  20733915.669    20733916.959   -25480934.87949 -19781203.18147
 09  1  1  0 29 30.0000000  0  9G25G 3G19G28G 7G 6G 8G27G11
  21800284.817    21800287.518   -16166939.43849 -12558142.91747
  23288402.984    23288405.869   -10208010.65749  -7898189.29245
  21180497.517    21180498.211   -20961943.73749 -16302539.22647
  23707210.080    23707211.305   -11496564.94449  -8902016.54546
  20780139.019    20780140.561   -24288736.88249 -18900962.54547
  24666243.635    24666244.848      832981.25649    682866.23544
  21120462.608    21120465.325   -22254779.49049 -17303952.67747
  22066179.652    22066182.753   -20515285.82649 -15949034.09547
  20722147.676    20722149.195   -25542775.01149 -19829390.28947
 09  1  1  0 30  0.0000000  0 10G25G 3G19G28G 7G 6G 8G17G27G11
  21814875.566    21814878.254   -16090266.09949 -12498397.47847
  23306111.365    23306113.965   -10114953.01749  -7825676.88645
  21192003.221    21192003.871   -20901481.61549 -16255425.89447
  23691726.999    23691728.464   -11577924.56749  -8965413.65545
  20789195.479    20789197.096   -24241144.19149 -18863877.34447
  24683089.603    24683091.122      921510.04649    751849.63744
  21111858.894    21111861.460   -22299991.92549 -17339183.15147
  25293851.231    25293855.495    -1475942.61148  -1121157.09944
  22057886.343    22057889.041   -20558867.56349 -15982993.89947
  20710473.428    20710475.191   -25604123.66749 -19877194.43047
 09  1  1  0 30 30.0000000  0 11G25G26G 3G19G28G 7G 6G 8G17G27G11
  21829537.006    21829539.243   -16013219.53749 -12438361.21247
  24923961.241    24923963.091    -3665274.52449  -2833503.06444
  23323827.900    23323831.314   -10021848.78949  -7753128.18245
  21203552.636    21203553.389   -20840788.03749 -16208132.20247
  23676246.885    23676247.584   -11659276.04349  -9028804.41446
  20798357.527    20798359.379   -24192997.07449 -18826360.11947
  24699932.572    24699935.689     1010021.99449    820819.93844
  21103367.333    21103369.845   -22344615.85349 -17373955.04747
  25276898.507    25276902.548    -1565032.88248  -1190578.11444
  22049682.792    22049685.628   -20601977.32649 -16016585.92847
  20698893.075    20698894.514   -25664978.68949 -19924613.92447
 09  1  1  0 31  0.0000000  0 11G25G26G 3G19G28G 7G 6G 8G17G27G11
  21844269.017    21844271.472   -15935802.51249 -12378036.27347
  24922654.835    24922658.420    -3672144.47549  -2838856.29945
  23341553.968    23341556.989    -9928699.44849  -7680544.34045
  21215145.850    21215146.625   -20779865.21149 -16160659.87647
  23660768.031    23660768.543   -11740618.87849  -9092188.43146
  20807624.831    20807626.642   -24144297.55849 -18788412.45647
  24716772.005    24716775.528     1098515.91649    889776.20244
  21094987.774    21094990.696   -22388649.72849 -17408267.16447
  25259962.602    25259964.806    -1654028.95249  -1259925.69644
  22041569.149    22041571.916   -20644613.70049 -16049809.08147
  20687407.006    20687408.595   -25725338.48149 -19971647.52447
 09  1  1  0 31 30.0000000  0 11G25G26G 3G19G28G 7G 6G 8G17G27G11
  21859070.790    21859073.665   -15858017.55649 -12317424.63247
  24921458.843    24921463.037    -3678426.86049  -2843751.68245
  23359288.161    23359291.745    -9835506.18649  -7607926.25145
  21226782.204    21226783.078   -20718715.03949 -16113010.39547
  23645290.796    23645292.516   -11821952.36249  -9155565.15646
  20816996.793    20816998.449   -24095047.67549 -18750035.93347
  24733608.139    24733612.348     1186990.79049    958717.62444
  21086721.177    21086724.055   -22432091.44949 -17442117.85847
  25243047.292    25243048.936    -1742930.69549  -1329199.80244
  22033546.043    22033549.098   -20686775.43949 -16082662.39247
  20676015.492    20676016.985   -25785201.89849 -20018294.34147
 09  1  1  0 32  0.0000000  0 11G25G26G 3G19G28G 7G 6G 8G17G27G11
  21873942.924    21873945.415   -15779866.87949 -12256528.02547
  24920376.113    24920378.662    -3684121.90049  -2848189.38945
  23377030.808    23377034.806    -9742270.03549  -7535274.74245
  21238462.089    21238462.533   -20657338.85649 -16065184.80647
  23629814.999    23629817.349   -11903275.37349  -9218933.73946
  20826473.263    20826474.862   -24045248.72549 -18711231.56847
  24750443.045    24750442.959     1275445.97348   1027643.70144
  21078567.541    21078570.400   -22474939.25749 -17475505.76347
  25226148.801    25226149.353    -1831737.01349  -1398399.48345
  22025613.685    22025616.670   -20728460.70649 -16115144.42347
  20664718.623    20664719.916   -25844567.29149 -20064553.08947
 09  1  1  0 32 30.0000000  0 11G25G26G 3G19G28G 7G 6G 8G17G27G11
  21888883.681    21888885.828   -15701352.04049 -12195347.64347
  24919402.986    24919405.710    -3689229.20849  -2852169.13645
  23394781.100    23394784.233    -9648991.78949  -7462590.43845
  21250184.274    21250184.833   -20595738.16549 -16017184.27447
  23614342.021    23614344.227   -11984586.98649  -9282293.43946
  20836053.730    20836055.680   -23994901.80449 -18672000.21147
  24767271.265    24767271.412     1363881.44048   1096554.40244
  21070527.138    21070530.260   -22517190.54749 -17508428.84847
  25209268.057    25209268.074    -1920446.76749  -1467523.96944
  22017772.553    22017775.333   -20769667.15149 -16147253.34947
  20653516.938    20653518.357   -25903432.19749 -20110421.84847
 09  1  1  0 33  0.0000000  0 11G25G26G 3G19G28G 7G 6G 8G17G27G11
  21903893.180    21903895.711   -15622475.64849 -12133885.53747
  24918543.391    24918543.599    -3693749.00649  -2855691.11245
  23412538.857    23412541.982    -9555672.43049  -7389874.09545
  21261948.759    21261949.420   -20533914.64849 -15969010.11147
  23598871.501    23598873.302   -12065885.89049  -9345643.22446
  20845738.585    20845740.342   -23944008.50949 -18632343.10847
  24784094.988    24784095.928     1452296.28548   1165449.02944
  21062600.865    21062603.913   -22558843.58049 -17540885.76047
  25192403.562    25192407.628    -2009059.89049  -1536573.17945
  22010022.319    22010024.833   -20810393.70049 -16178988.33047
  20642410.856    20642412.379   -25961795.37649 -20155899.64447
 09  1  1  0 33 30.0000000  0 11G25G26G 3G19G28G 7G 6G 8G17G27G11
  21918972.111    21918974.786   -15543234.92949 -12072139.53847
  24917795.649    24917797.586    -3697676.71549  -2858751.68745
  23430305.577    23430309.067    -9462308.01449  -7317122.65645
  21273756.445    21273756.986   -20471865.10149 -15920659.81947
  23583404.189    23583405.925   -12147166.43949  -9408978.71646
  20855528.038    20855529.563   -23892565.56649 -18592257.70947
  24800916.043    24800916.726     1540694.76248   1234330.88844
  21054789.832    21054792.856   -22599891.31149 -17572871.01747
  25175559.873    25175565.558    -2097570.72948  -1605542.66244
  22002365.289    22002367.629   -20850633.74649 -16210344.21647
  20631401.398    20631402.607   -26019650.26649 -20200981.38047
 09  1  1  0 34  0.0000000  0 11G25G26G 3G19G28G 7G 6G 8G17G27G11
  21934118.316    21934121.183   -15463640.58149 -12010117.98947
  24917160.509    24917162.576    -3701020.99649  -2861357.66545
  23448078.983    23448083.206    -9368908.49849  -7244343.86645
  21285605.202    21285605.840   -20409599.45949 -15872141.15147
  23567938.466    23567940.741   -12228435.88149  -9472305.54246
  20865419.960    20865421.517   -23840582.75549 -18551751.63047
  24817732.901    24817739.987     1629067.87548   1303193.03144
  21047092.811    21047095.769   -22640340.17649 -17604389.61847
  25158735.700    25158737.829    -2185987.25349  -1674438.68744
  21994798.918    21994801.700   -20890393.95349 -16241326.20147
  20620487.603    20620488.778   -26077003.28749 -20245672.04247
 09  1  1  0 34 30.0000000  0 11G25G26G 3G19G28G 7G 6G 8G17G27G11
  21949332.303    21949334.637   -15383692.17749 -11947820.54747
  24916634.613    24916637.080    -3703779.49049  -2863507.16645
  23465858.714    23465863.582    -9275472.02549  -7171536.28945
  21297495.361    21297496.101   -20347116.71149 -15823453.29947
  23552477.119    23552478.060   -12309690.69449  -9535620.99046
  20875414.891    20875416.401   -23788059.05649 -18510824.08347
  24834548.080    24834552.388     1717417.58448   1372036.92944
  21039510.340    21039513.483   -22680185.50249 -17635437.93147
  25141931.193    25141931.501    -2274306.11649  -1743258.60645
  21987324.792    21987327.670   -20929670.04849 -16271930.95647
  20609669.743    20609671.391   -26133850.12949 -20289968.27747
 09  1  1  0 35  0.0000000  0 11G25G26G 3G19G28G 7G 6G 8G17G27G11
  21964612.605    21964615.263   -15303392.04449 -11885249.03347
  24916221.709    24916223.479    -3705952.47749  -2865200.42745
  23483646.540    23483650.510    -9181999.64049  -7098700.70445
  21309426.501    21309427.129   -20284418.26949 -15774597.37747
  23537017.812    23537020.512   -12390929.85249  -9598924.22746
  20885512.411    20885513.980   -23734996.27049 -18469476.46747
  24851356.634    24851358.532     1805743.44048   1440862.16044
  21032043.199    21032046.247   -22719425.48749 -17666014.54847
  25125140.627    25125143.029    -2362526.76948  -1812001.95645
  21979943.302    21979946.157   -20968460.67849 -16302157.42847
  20598948.924    20598950.298   -26190189.67249 -20333869.21247
 09  1  1  0 35 30.0000000  0 11G25G26G 3G19G28G 7G 6G 8G17G27G11
  21979960.210    21979962.251   -15222742.32049 -11822405.10847
  24915917.719    24915921.931    -3707540.27849  -2866437.68945
  23501441.021    23501443.236    -9088491.79049  -7025837.50445
  21321398.503    21321398.919   -20221505.78049 -15725574.66847
  23521562.101    23521562.656   -12472152.19249  -9662214.34146
  20895712.070    20895713.858   -23681395.85149 -18427709.91847
  24868156.344    24868160.799     1894044.83548   1509668.37544
  21024691.809    21024694.779   -22758058.03149 -17696117.83747
  25108373.265    25108373.902    -2450648.52549  -1880668.22545
  21972654.628    21972657.185   -21006763.91849 -16332004.11147
  20588324.699    20588326.048   -26246019.82049 -20377373.21647
 09  1  1  0 36  0.0000000  0 11G25G26G 3G19G28G 7G 6G 8G17G27G11
  21995372.600    21995375.406   -15141745.46249 -11759290.68747
  24915727.261    24915731.166    -3708543.35249  -2867219.31245
  23519241.078    23519243.708    -8994950.03749  -6952947.86445
  21333410.707    21333411.242   -20158381.17949 -15676386.67347
  23506108.670    23506110.970   -12553356.67749  -9725490.55746
  20906013.748    20906015.614   -23627259.56249 -18385525.80547
  24884956.233    24884957.653     1982321.13348   1578455.02244
  21017456.108    21017459.077   -22796081.40449 -17725746.44547
  25091622.091    25091625.981    -2538670.99549  -1949257.19745
  21965459.069    21965461.629   -21044578.28649 -16361469.86347
  20577797.817    20577799.150   -26301339.11849 -20420479.15647
 09  1  1  0 36 30.0000000  0 11G25G26G 3G19G28G 7G 6G 8G17G27G11
  22010851.724    22010854.474   -15060402.97149 -11695906.94347
  24915648.056    24915651.875    -3708961.21649  -2867544.96245
  23537048.271    23537052.035    -8901374.37249  -6880031.79945
  21345462.963    21345463.729   -20095044.90749 -15627033.74247
  23490659.615    23490661.259   -12634541.50149  -9788751.45946
  20916417.535    20916419.296   -23572588.35849 -18342924.87847
  24901748.358    24901753.027     2070572.44548   1647222.24644
  21010336.906    21010339.598   -22833493.30249 -17754898.58247
  25074891.904    25074894.241    -2626592.51849  -2017767.49045
  21958356.416    21958359.098   -21081901.61649 -16390552.98947
  20567368.607    20567369.881   -26356145.47249 -20463185.40147
 09  1  1  0 37  0.0000000  0 11G25G26G 3G19G28G 7G 6G 8G17G27G11
  22026396.323    22026398.980   -14978718.16549 -11632256.46047
  24915680.703    24915682.736    -3708795.51249  -2867415.89645
  23554860.409    23554864.274    -8807766.64349  -6807090.76845
  21357555.062    21357555.970   -20031499.69649 -15577517.99947
  23475214.157    23475216.983   -12715707.02749  -9851997.32346
  20926922.353    20926924.047   -23517384.87349 -18299909.18547
  24918536.976    24918541.693     2158797.16748   1715968.71144
  21003334.114    21003337.087   -22870292.78749 -17783573.51247
  25058178.774    25058183.007    -2714413.69449  -2086199.58945
  21951347.538    21951350.041   -21118733.38149 -16419253.07147
  20557036.800    20557038.308   -26410438.30749 -20505491.50047
 09  1  1  0 37 30.0000000  0 11G25G26G 3G19G28G 7G 6G 8G17G27G11
  22042005.227    22042007.531   -14896693.18649 -11568340.91147
  24915822.595    24915823.290    -3708046.29749  -2866832.10845
  23572679.414    23572684.035    -8714127.72249  -6734125.43045
  21369686.884    21369687.688   -19967747.31649 -15527840.82847
  23459774.456    23459774.351   -12796851.59649  -9915226.84846
  20937528.051    20937529.985   -23461650.77549 -18256480.03047
  24935320.017    24935322.436     2246995.00949   1784694.24944
  20996448.451    20996451.339   -22906477.66949 -17811769.53147
  25041485.670    25041489.558    -2802134.07949  -2154553.12645
  21944432.795    21944435.120   -21155072.06449 -16447568.93947
  20546803.204    20546804.696   -26464215.88349 -20547396.10147
 09  1  1  0 38  0.0000000  0 11G25G26G 3G19G28G 7G 6G 8G17G27G11
  22057677.987    22057680.378   -14814330.96749 -11504162.57347
  24916076.039    24916079.698    -3706714.80849  -2865794.59845
  23590504.743    23590507.826    -8620458.97649  -6661136.84345
  21381857.918    21381858.700   -19903789.22249 -15478003.36147
  23444337.153    23444338.463   -12877974.98349  -9978439.86146
  20948234.629    20948236.317   -23405388.08749 -18212638.97947
  24952098.472    24952102.508     2335164.57249   1853397.76444
  20989679.767    20989682.813   -22942046.66749 -17839485.63947
  25024813.162    25024817.249    -2889753.34849  -2222827.85645
  21937611.498    21937614.382   -21190916.54849 -16475499.71247
  20536668.150    20536669.401   -26517477.16749 -20588898.39247
 09  1  1  0 38 30.0000000  0 11G25G26G 3G19G28G 7G 6G 8G17G27G11
  22073414.603    22073417.555   -14731633.11049 -11439722.70147
  24916441.576    24916442.768    -3704800.72949  -2864303.12245
  23608335.020    23608337.783    -8526761.04849  -6588125.50645
  21394067.355    21394068.386   -19839626.70049 -15428006.60147
  23428903.717    23428904.352   -12959075.21149 -10041634.84046
  20959041.577    20959043.023   -23348598.10449 -18168387.05447
  24968872.189    24968875.735     2423306.21049   1922079.50744
  20983029.231    20983031.797   -22976997.33649 -17866719.93647
  25008160.950    25008162.541    -2977270.40249  -2291022.95945
  21930885.084    21930887.545   -21226264.74349 -16503043.77247
  20526631.369    20526632.594   -26570220.09349 -20629996.77047
 09  1  1  0 39  0.0000000  0 11G25G26G 3G19G28G 7G 6G 8G17G27G11
  22089215.195    22089218.129   -14648602.61149 -11375023.62447
  24916916.298    24916916.729    -3702305.35749  -2862358.70245
  23626170.902    23626172.666    -8433035.02049  -6515092.28445
  21406315.526    21406316.524   -19775261.97449 -15377852.28347
  23413474.809    23413476.856   -13040151.99849 -10104811.54146
  20969948.447    20969949.923   -23291283.13549 -18123726.05047
  24985639.192    24985641.925     2511418.77049   1990738.57344
  20976496.064    20976498.783   -23011328.88949 -17893471.80347
  24991525.257    24991528.139    -3064685.19749  -2359138.38345
  21924253.105    21924255.562   -21261115.78649 -16530200.43447
  20516693.609    20516694.799   -26622443.76149 -20670690.53247
 09  1  1  0 39 30.0000000  0 11G25G26G 3G19G28G 7G 6G 8G17G27G11
  22105078.892    22105080.808   -14565241.24449 -11310066.73347
  24917499.514    24917502.999    -3699228.33049  -2859961.07345
  23644011.312    23644014.482    -8339281.53549  -6442037.66545
  21418602.220    21418602.802   -19710695.92849 -15327541.09347
  23398051.476    23398053.886   -13121203.42049 -10167968.48746
  20980954.368    20980956.336   -23233444.47649 -18078656.97847
  25002400.798    25002404.422     2599502.30349   2059375.00044
  20970081.045    20970084.063   -23045038.79349 -17919739.27347
  24974909.830    24974912.614    -3151996.64649  -2427173.30645
  21917716.101    21917718.745   -21295467.89549 -16556968.32347
  20506854.930    20506856.283   -26674146.08649 -20710978.05247
 09  1  1  0 40  0.0000000  0 11G25G26G 3G19G28G 7G 6G 8G17G27G11
  22121004.257    22121006.450   -14481552.22449 -11244854.52547
  24918196.382    24918200.240    -3695571.23949  -2857111.40845
  23661856.548    23661859.245    -8245502.40049  -6368963.06545
  21430926.628    21430927.105   -19645930.88549 -15277074.83847
  23382633.150    23382634.338   -13202229.18349 -10231105.44646
  20992059.939    20992061.593   -23175084.68249 -18033181.82547
  25019156.408    25019161.906     2687555.26948   2127987.62944
  20963784.864    20963787.695   -23078126.09749 -17945521.59247
  24958316.077    24958318.335    -3239205.05449  -2495127.89545
  21911274.430    21911276.841   -21329320.24949 -16583346.78947
  20497115.602    20497116.937   -26725326.58149 -20750858.95247
 09  1  1  0 40 30.0000000  0 11G25G26G 3G19G28G 7G 6G 8G17G27G11
  22136991.799    22136993.960   -14397537.48649 -11179388.51147
  24919003.963    24919005.048    -3691334.15849  -2853809.80645
  23679706.670    23679710.330    -8151698.02349  -6295868.77745
  21443288.570    21443289.497   -19580967.93349 -15226454.36847
  23367218.271    23367220.906   -13283227.95949 -10294221.36546
  21003264.503    21003265.789   -23116205.15349 -17987301.68247
  25035907.522    25035911.938     2775577.65249   2196576.40344
  20957607.250    20957610.389   -23110589.05849 -17970817.41347
  24941740.792    24941743.664    -3326309.59249  -2563001.55445
  21904927.734    21904930.472   -21362671.05249 -16609334.43547
  20487475.926    20487477.344   -26775983.33649 -20790331.74247
 09  1  1  0 41  0.0000000  0 11G25G26G 3G19G28G 7G 6G 8G17G27G11
  22153040.889    22153043.239   -14313199.17349 -11113670.36547
  24919920.908    24919922.177    -3686517.88049  -2850056.92245
  23697561.799    23697565.249    -8057869.03049  -6222755.32645
  21455687.926    21455688.975   -19515808.44449 -15175680.75547
  23351811.277    23351812.534   -13364198.58649 -10357315.35346
  21014567.518    21014569.078   -23056807.61749 -17941017.90347
  25052653.119    25052655.553     2863569.21149   2265141.17844
  20951549.074    20951552.126   -23142425.53249 -17995625.06147
  24925185.623    24925187.800    -3413309.08549  -2630793.37545
  21898677.001    21898679.524   -21395518.64649 -16634929.97647
  20477936.260    20477937.632   -26826114.71549 -20829395.14848
 09  1  1  0 41 30.0000000  0 11G25G26G 3G19G28G 7G 6G 8G17G27G11
  22169150.147    22169152.880   -14228541.90349 -11047703.67247
  24920946.678    24920949.023    -3681124.93649  -2845854.62645
  23715421.365    23715425.495    -7964018.51749  -6149625.10945
  21468124.397    21468125.020   -19450455.93549 -15124756.73047
  23336407.581    23336409.569   -13445141.82349 -10420388.00246
  21025968.145    21025969.893   -22996896.19349 -17894333.68647
  25069391.401    25069391.877     2951527.15149   2333679.75544
  20945609.856    20945612.830   -23173636.17449 -18019945.05147
  24908649.041    24908650.977    -3500205.54349  -2698504.90045
  21892521.992    21892524.644   -21427863.82449 -16660134.02247
  20468496.335    20468497.709   -26875721.69549 -20868049.92948
 09  1  1  0 42  0.0000000  0 11G25G26G 3G19G28G 7G 6G 8G17G27G11
  22185320.382    22185323.052   -14143564.99549 -10981487.91146
  24922083.101    24922086.184    -3675152.90349  -2841201.14145
  23733285.998    23733287.931    -7870144.24749  -6076476.38545
  21480597.532    21480598.232   -19384909.33449 -15073681.46747
  23321010.271    23321012.857   -13526053.72949 -10483436.24346
  21037467.045    21037468.606   -22936469.55549 -17847248.00647
  25086122.369    25086123.270     3039454.18049   2402194.25644
  20939790.884    20939793.824   -23204216.07049 -18043773.55147
  24892133.205    24892135.358    -3586995.23449  -2766133.20345
  21886463.217    21886466.186   -21459702.35449 -16684943.27547
  20459157.230    20459158.486   -26924799.91149 -20906292.69148
 09  1  1  0 42 30.0000000  0 11G25G26G 3G19G28G 7G 6G 8G17G27G11
  22201551.416    22201553.808   -14058271.66149 -10915025.58646
  24923328.349    24923329.342    -3668603.34149  -2836097.61045
  23751152.789    23751155.671    -7776247.90949  -6003310.43845
  21493107.301    21493107.930   -19319170.67449 -15022456.55247
  23305619.855    23305622.192   -13606933.69849 -10546459.59346
  21049063.257    21049064.866   -22875530.47949 -17799763.01947
  25102844.672    25102850.123     3127348.71248   2470683.42444
  20934092.040    20934094.590   -23234164.67049 -18067110.13147
  24875639.313    24875640.783    -3673678.67549  -2833678.74845
  21880500.914    21880503.709   -21491033.81649 -16709357.40947
  20449918.496    20449919.845   -26973348.62249 -20944122.85248
 09  1  1  0 43  0.0000000  0 11G25G26G 3G19G28G 7G 6G 8G17G27G11
  22217841.628    22217844.340   -13972665.04549 -10848319.14646
  24924684.910    24924687.475    -3661477.81649  -2830545.26045
  23769025.846    23769028.265    -7682331.13949  -5930128.59245
  21505652.776    21505653.781   -19253242.03649 -14971083.59947
  23290234.746    23290237.175   -13687781.30749 -10609457.73046
  21060756.572    21060758.022   -22814081.61049 -17751880.80047
  25119566.466    25119569.780     3215209.76249   2539146.48644
  20928513.292    20928516.004   -23263481.32649 -18089954.28947
  24859164.369    24859166.023    -3760255.87749  -2901141.51145
  21874635.775    21874638.140   -21521857.38049 -16733375.78147
  20440781.062    20440782.237   -27021367.18849 -20981539.91348
 09  1  1  0 43 30.0000000  0 11G25G26G 3G19G28G 7G 6G 8G17G27G11
  22234191.110    22234194.042   -13886747.27349 -10781370.24546
  24926150.805    24926153.353    -3653776.69449  -2824544.41745
  23786900.312    23786904.469    -7588394.80749  -5856931.48245
  21518234.586    21518235.298   -19187125.02049 -14919563.85747
  23274857.312    23274858.280   -13768595.21249 -10672429.60546
  21072546.570    21072548.118   -22752124.60349 -17703602.62547
  25136281.874    25136282.666     3303037.14349   2607583.29744
  20923054.881    20923057.828   -23292164.17749 -18112304.56947
  24842709.810    24842710.313    -3846725.79449  -2968520.65945
  21868866.868    21868869.560   -21552171.37649 -16756997.08347
  20431744.508    20431746.012   -27068854.02749 -21018542.64448
 09  1  1  0 44  0.0000000  0 11G25G26G 3G19G28G 7G 6G 8G17G27G11
  22250599.950    22250602.134   -13800521.26349 -10714181.16246
  24927724.595    24927725.096    -3645501.31849  -2818096.06745
  23804778.435    23804783.371    -7494439.81149  -5783719.83545
  21530851.502    21530852.338   -19120821.34449 -14867898.66347
  23259485.423    23259486.368   -13849374.64449 -10735374.61446
  21084433.101    21084434.510   -22689661.72849 -17654930.27147
  25152987.149    25152991.906     3390829.81848   2675993.07544
  20917717.645    20917720.346   -23320212.22649 -18134160.20047
  24826272.879    24826275.920    -3933088.56749  -3035816.32245
  21863195.365    21863197.842   -21581975.07849 -16780220.75547
  20422809.343    20422810.541   -27115808.63849 -21055130.64548
 09  1  1  0 44 30.0000000  0 11G25G26G 3G19G28G 7G 6G 8G17G27G11
  22267066.201    22267068.487   -13713990.07549 -10646754.27946
  24929409.009    24929412.433    -3636652.96649  -2811201.25645
  23822661.025    23822666.003    -7400467.77449  -5710494.90345
  21543504.092    21543504.562   -19054333.12649 -14816089.67347
  23244119.861    23244121.629   -13930119.29849 -10798292.52146
  21096414.906    21096416.713   -22626695.89749 -17605865.99947
  25169685.679    25169690.924     3478586.66048   2744374.95444
  20912501.377    20912504.159   -23347624.42349 -18155520.35947
  24809860.471    24809861.846    -4019344.50849  -3103028.72545
  21857621.024    21857624.253   -21611267.81649 -16803046.26747
  20413975.569    20413977.079   -27162230.02849 -21091303.15348
 09  1  1  0 45  0.0000000  0 11G25G26G 3G19G28G 7G 6G 8G17G27G11
  22283589.562    22283592.391   -13627157.67949 -10579092.68846
  24931202.787    24931203.775    -3627234.23049  -2803862.00645
  23840546.073    23840549.222    -7306481.19549  -5637258.62545
  21556190.920    21556191.406   -18987663.61449 -14764139.41847
  23228761.163    23228762.364   -14010829.20449 -10861183.35246
  21108492.285    21108493.902   -22563230.30949 -17556412.31147
  25186379.442    25186380.864     3566305.69648   2812727.37844
  20907405.744    20907408.689   -23374400.85249 -18176385.11947
  24793466.530    24793468.233    -4105494.58949  -3170158.66145
  21852144.025    21852146.949   -21640049.91049 -16825473.88047
  20405243.214    20405244.617   -27208118.89449 -21127060.70448
 09  1  1  0 45 30.0000000  0 11G25G26G 3G19G28G 7G 6G 8G17G27G11
  22300168.295    22300170.998   -13540033.44349 -10511203.69246
  24933098.405    24933104.072    -3617252.88549  -2796084.34845
  23858432.741    23858436.950    -7212487.54249  -5564016.83545
  21568910.634    21568911.376   -18920820.83449 -14712054.14647
  23213408.282    23213409.292   -14091510.34649 -10924051.76846
  21120662.839    21120664.134   -22499274.10849 -17506576.32347
  25203061.214    25203066.115     3653979.54848   2881044.56944
  20902430.538    20902433.156   -23400546.99349 -18196758.73947
  24777091.626    24777093.345    -4191544.88849  -3237210.81545
  21846762.901    21846765.662   -21668327.14549 -16847508.09447
  20396611.080    20396612.484   -27253480.68549 -21162407.55148
 09  1  1  0 46  0.0000000  0 11G25G26G 3G19G28G 7G 6G 8G17G27G11
  22316806.027    22316807.907   -13452605.49949 -10443078.03946
  24935109.353    24935110.898    -3606695.47549  -2787857.84045
  23876324.115    23876327.425    -7118473.63149  -5490759.28145
  21581665.424    21581666.470   -18853792.15449 -14659824.02047
  23198063.885    23198064.431   -14172147.02849 -10986885.53746
  21132928.818    21132930.405   -22434815.13949 -17456348.57147
  25219739.478    25219744.322     3741622.01548   2949337.32444
  20897577.768    20897580.560   -23426047.48549 -18216629.25747
  24760738.817    24760741.349    -4277481.25749  -3304174.20945
  21841481.157    21841484.043   -21696084.14449 -16869136.93047
  20388082.344    20388083.609   -27298299.77249 -21197331.51448
 09  1  1  0 46 30.0000000  0 11G25G26G 3G19G28G 7G 6G 8G17G27G11
  22333499.880    22333502.500   -13364879.13549 -10374719.85546
  24937227.327    24937229.267    -3595565.54749  -2779185.21345
  23894217.168    23894220.401    -7024442.94849  -5417488.66945
  21594455.290    21594456.203   -18786582.06949 -14607452.54547
  23182726.742    23182728.258   -14252740.78549 -11049685.87146
  21145289.711    21145291.169   -22369858.22049 -17405732.81047
  25236411.926    25236412.427     3829230.03048   3017603.21144
  20892847.732    20892850.599   -23450903.75349 -18235997.78447
  24744406.244    24744408.109    -4363305.38149  -3371050.15845
  21836298.195    21836300.774   -21723322.30749 -16890361.48147
  20379656.497    20379657.932   -27342578.15949 -21231834.15348
 09  1  1  0 47  0.0000000  0 11G25G26G 3G19G28G 7G 6G 8G17G27G11
  22350250.034    22350252.205   -13276858.48849 -10306132.36446
  24939454.305    24939456.322    -3583865.77149  -2770068.55045
  23912114.148    23912115.992    -6930397.63649  -5344206.65645
  21607279.122    21607279.847   -18719193.14949 -14554941.72147
  23167398.774    23167400.623   -14333292.16549 -11112453.17046
  21157745.128    21157746.127   -22304406.95449 -17354731.83747
  25253075.949    25253082.511     3916801.24948   3085840.49044
  20888240.582    20888243.071   -23475115.73149 -18254864.27147
  24728096.815    24728097.507    -4449018.51949  -3437839.63845
  21831213.296    21831216.233   -21750042.07049 -16911182.08447
  20371333.479    20371334.678   -27386316.11749 -21265915.67348
 09  1  1  0 47 30.0000000  0 11G25G26G 3G19G28G 7G 6G 8G17G27G11
  22367055.170    22367057.149   -13188547.24749 -10237318.43546
  24941786.630    24941790.627    -3571598.38049  -2760509.59645
  23930011.907    23930015.027    -6836340.04949  -5270915.06445
  21620136.261    21620137.154   -18651628.61949 -14502294.05047
  23152077.400    23152079.354   -14413801.18149 -11175187.45846
  21170293.001    21170294.666   -22238464.51249 -17303348.12947
  25269732.388    25269735.639     4004334.21748   3154047.94544
  20883755.777    20883758.641   -23498683.33049 -18273228.64247
  24711806.602    24711808.337    -4534621.66849  -3504543.40145
  21826227.357    21826230.145   -21776243.71449 -16931598.95947
  20363113.200    20363114.531   -27429513.76849 -21299576.17748
 09  1  1  0 48  0.0000000  0 11G25G26G 3G19G28G 7G 6G 8G17G27G11
  22383914.688    22383917.065   -13099947.01649 -10168279.30846
  24944230.179    24944233.879    -3558763.47249  -2750508.36445
  23947912.905    23947916.061    -6742269.85949  -5197613.65745
  21633026.767    21633027.362   -18583888.42549 -14449509.49947
  23136766.070    23136766.998   -14494265.49849 -11237886.93646
  21182934.679    21182936.329   -22172032.24349 -17251582.74147
  25286378.994    25286384.757     4091829.42148   3222225.98644
  20879394.066    20879396.814   -23521604.42849 -18291089.23847
  24695538.245    24695539.459    -4620113.14949  -3571160.11445
  21821340.410    21821343.160   -21801925.17649 -16951610.49547
  20354996.079    20354997.613   -27472168.96649 -21332813.99048
 09  1  1  0 48 30.0000000  0 11G25G26G 3G19G28G 7G 6G 8G17G27G11
  22400829.099    22400831.468   -13011060.67649 -10099017.24346
  24946779.884    24946783.717    -3545362.38949  -2740065.98044
  23965817.050    23965819.103    -6648188.68949  -5124303.69045
  21645950.191    21645951.087   -18515974.77649 -14396589.79047
  23121461.995    23121465.132   -14574684.56749 -11300551.14846
  21195669.174    21195670.751   -22105112.81349 -17199437.74147
  25303028.448    25303029.181     4179285.90248   3290373.87944
  20875155.451    20875158.139   -23543878.32149 -18308445.52347
  24679290.333    24679293.080    -4705493.11849  -3637689.94245
  21816552.245    21816555.420   -21827085.80249 -16971216.18547
  20346982.417    20346983.755   -27514281.34649 -21365628.84348
 09  1  1  0 49  0.0000000  0 10G25G26G 3G19G28G 7G 8G17G27G11
  22417797.742    22417799.932   -12921891.42749 -10029534.72746
  24949439.283    24949441.143    -3531396.95949  -2729183.88645
  23983721.255    23983723.908    -6554097.78949  -5050986.14545
  21658906.531    21658907.131   -18447889.87249 -14343536.63347
  23106167.933    23106171.122   -14655057.57049 -11363179.47146
  21208495.794    21208497.336   -22037708.76049 -17146915.12147
  20871039.870    20871042.883   -23565504.66549 -18325297.22747
  24663064.816    24663066.756    -4790761.66449  -3704132.96645
  21811863.821    21811866.569   -21851725.05649 -16990415.61747
  20339072.123    20339073.488   -27555850.39349 -21398020.31748
 09  1  1  0 49 30.0000000  0 10G25G26G 3G19G28G 7G 8G17G27G11
  22434818.848    22434821.464   -12832443.37049  -9959834.96546
  24952201.480    24952205.802    -3516869.78149  -2717864.03545
  24001629.028    24001630.215    -6459999.57549  -4977662.90345
  21671894.620    21671895.317   -18379636.55549 -14290352.24947
  23090882.685    23090883.442   -14735384.94149 -11425772.23246
  21221413.761    21221415.502   -21969823.95949 -17094017.88847
  20867047.803    20867050.809   -23586483.43249 -18341644.32547
  24646858.635    24646861.280    -4875920.12849  -3770490.20945
  21807274.088    21807276.922   -21875843.40849 -17009209.14247
  20331265.288    20331266.403   -27596876.42349 -21429988.65448
 09  1  1  0 50  0.0000000  0 10G25G26G 3G19G28G 7G 8G17G27G11
  22451893.258    22451896.252   -12742717.03549  -9889918.35446
  24955073.162    24955077.921    -3501780.04849  -2706105.83945
  24019535.182    24019539.419    -6365892.59649  -4904332.82145
  21684915.026    21684915.795   -18311214.44849 -14237036.33947
  23075606.370    23075607.578   -14815663.39149 -11488326.85946
  21234423.465    21234424.930   -21901458.74049 -17040746.30347
  20863179.581    20863182.395   -23606811.86549 -18357484.66947
  24630674.519    24630676.747    -4960965.72149  -3836759.49745
  21802784.366    21802786.946   -21899437.88049 -17027594.45447
  20323561.911    20323563.345   -27637356.56449 -21461531.61848
 09  1  1  0 50 30.0000000  0 10G25G26G 3G19G28G 7G 8G17G27G11
  22469020.251    22469022.462   -12652715.35049  -9819787.18646
  24958052.140    24958057.302    -3486129.17749  -2693910.43045
  24037444.064    24037447.922    -6271778.09649  -4830996.89145
  21697967.210    21697967.944   -18242625.27549 -14183590.25447
  23060339.739    23060341.970   -14895891.74449 -11550842.45346
  21247523.975    21247525.062   -21832615.28149 -16987102.06847
  20859435.144    20859437.977   -23626488.98249 -18372817.50247
  24614513.187    24614514.782    -5045898.91249  -3902941.20745
  21798394.236    21798396.903   -21922507.81749 -17045571.04347
  20315962.802    20315964.284   -27677290.31349 -21492648.82548
 09  1  1  0 51  0.0000000  0 10G25G26G 3G19G28G 7G 8G17G27G11
  22486198.599    22486201.841   -12562441.04249  -9749443.58646
  24961138.563    24961140.313    -3469918.64949  -2681278.87045
  24055355.644    24055357.126    -6177657.17049  -4757655.93545
  21711050.902    21711051.664   -18173870.48849 -14130015.11247
  23045082.252    23045083.784   -14976069.37149 -11613318.52946
  21260714.783    21260716.337   -21763296.37249 -16933087.34947
  20855815.030    20855817.720   -23645513.70449 -18387641.97047
  24598372.481    24598373.981    -5130718.94749  -3969034.71145
  21794104.146    21794106.710   -21945052.37249 -17063138.23747
  20308467.930    20308469.330   -27716676.62449 -21523339.46448
 09  1  1  0 51 30.0000000  0 10G25G26G 3G19G28G 7G 8G17G27G11
  22503428.451    22503431.797   -12471896.82149  -9678889.65946
  24964328.475    24964329.907    -3453149.69049  -2668212.19645
  24073266.564    24073270.774    -6083530.66449  -4684310.64345
  21724165.563    21724166.339   -18104951.79549 -14076312.24647
  23029834.238    23029835.895   -15056194.96549 -11675754.04546
  21273995.829    21273997.423   -21693504.33449 -16878703.96347
  20852318.820    20852321.733   -23663885.35549 -18401957.54947
  24582253.480    24582255.200    -5215425.31449  -4035039.64645
  21789914.276    21789916.934   -21967070.92249 -17080295.55547
  20301077.267    20301078.620   -27755515.00149 -21553603.13148
 09  1  1  0 52  0.0000000  0 10G25G26G 3G19G28G 7G 8G17G27G11
  22520709.627    22520712.792   -12381085.15249  -9608127.34446
  24967624.513    24967627.345    -3435823.55649  -2654711.33144
  24091180.453    24091182.170    -5989399.54649  -4610961.76745
  21737310.923    21737311.830   -18035870.64149 -14022482.79847
  23014597.586    23014598.601   -15136267.20949 -11738147.99946
  21287366.213    21287367.927   -21623241.46849 -16823953.69647
  20848947.174    20848950.386   -23681602.92649 -18415763.46047
  24566154.145    24566157.164    -5300017.94949  -4100955.96545
  21785824.478    21785827.115   -21988562.42549 -17097042.19247
  20293790.931    20293792.334   -27793804.53249 -21583439.13748
 09  1  1  0 52 30.0000000  0 10G25G26G 3G19G28G 7G 8G17G27G11
  22538040.809    22538043.811   -12290008.84349  -9537158.81346
  24971029.766    24971032.289    -3417941.40849  -2640777.23844
  24109092.812    24109096.053    -5895264.36149  -4537609.70445
  21750487.131    21750488.012   -17966628.63549 -13968528.01047
  22999370.857    22999372.097   -15216284.84149 -11800499.39846
  21300826.145    21300827.789   -21552510.08349 -16768838.34647
  20845700.392    20845703.329   -23698665.71249 -18429059.14047
  24550079.274    24550081.707    -5384496.68549  -4166783.52945
  21781835.319    21781837.845   -22009526.05349 -17113377.49447
  20286609.403    20286610.526   -27831544.35049 -21612846.79448
 09  1  1  0 53  0.0000000  0 10G25G26G 3G19G28G 7G 8G17G27G11
  22555421.547    22555424.697   -12198670.06349  -9465985.76146
  24974535.239    24974536.609    -3399504.34548  -2626410.73344
  24127007.990    24127010.959    -5801125.72749  -4464254.96045
  21763694.338    21763694.985   -17897226.45049 -13914448.40247
  22984154.351    22984154.997   -15296246.37049 -11862807.07346
  21314374.456    21314375.992   -21481312.13949 -16713359.45047
  20842578.473    20842581.350   -23715071.93649 -18441843.21847
  24534025.208    24534027.921    -5468860.70049  -4232521.70845
  21777946.861    21777949.319   -22029960.67649 -17129300.58747
  20279532.442    20279533.923   -27868733.12149 -21641825.05948
 09  1  1  0 53 30.0000000  0 10G25G26G 3G19G28G 7G 8G17G27G11
  22572852.349    22572855.373   -12107072.33049  -9394610.91746
  24978150.466    24978153.386    -3380514.70249  -2611613.59544
  24144921.519    24144925.180    -5706984.85649  -4390898.47145
  21776931.284    21776931.784   -17827666.67949 -13860246.00047
  22968949.387    22968950.466   -15376151.43849 -11925070.75246
  21328011.115    21328012.752   -21409650.84049 -16657519.49347
  20839581.118    20839584.151   -23730821.68749 -18454115.75847
  24517994.106    24517996.080    -5553110.45949  -4298170.81945
  21774159.043    21774161.282   -22049866.29849 -17144811.46547
  20272560.558    20272562.020   -27905370.95949 -21670374.02348
 09  1  1  0 54  0.0000000  0 10G25G26G 3G19G28G 7G 8G17G27G11
  22590331.869    22590334.706   -12015217.75949  -9323035.94446
  24981870.501    24981872.861    -3360973.08849  -2596386.43045
  24162835.287    24162840.808    -5612842.61049  -4317540.91145
  21790197.670    21790198.723   -17757950.27149 -13805921.54147
  22953754.706    22953756.505   -15455998.21749 -11987289.01446
  21341735.764    21341737.324   -21337528.09649 -16601319.97247
  20836709.526    20836712.282   -23745913.73449 -18465875.80247
  24501983.840    24501986.135    -5637245.04049  -4363730.20545
  21770471.836    21770474.912   -22069241.44049 -17159908.98347
  20265693.812    20265694.949   -27941456.70449 -21698492.79048
 09  1  1  0 54 30.0000000  0 10G25G26G 3G19G28G 7G 8G17G27G11
  22607859.025    22607862.351   -11923109.23849  -9251263.08746
  24985694.264    24985694.191    -3340881.24649  -2580730.44245
  24180751.604    24180753.971    -5518699.66349  -4244182.82445
  21803493.825    21803494.695   -17688078.81749 -13751476.27147
  22938572.167    22938573.637   -15535785.58549 -12049461.00146
  21355547.502    21355549.261   -21264946.23749 -16544762.69847
  20833962.828    20833965.677   -23760347.48749 -18477122.89247
  24485994.379    24485998.870    -5721264.33149  -4429199.76545
  21766885.629    21766888.691   -22088085.58849 -17174592.74247
  20258932.143    20258933.278   -27976989.68649 -21726180.84148
 09  1  1  0 55  0.0000000  0 10G25G26G 3G19G28G 7G 8G17G27G11
  22625435.167    22625438.144   -11830749.47649  -9179294.46046
  24989621.305    24989623.724    -3320240.81749  -2564647.04145
  24198668.520    24198669.583    -5424556.64349  -4170824.64945
  21816819.390    21816820.132   -17618053.87349 -13696911.39747
  22923399.851    22923401.580   -15615512.31549 -12111585.72846
  21369446.330    21369448.283   -21191908.22549 -16487849.97747
  20831341.682    20831344.624   -23774122.14449 -18487856.40147
  24470028.662    24470031.537    -5805168.13949  -4494579.33545
  21763401.291    21763404.168   -22106398.23549 -17188862.34347
  20252275.701    20252276.754   -28011969.60549 -21753437.92548
 09  1  1  0 55 30.0000000  0 10G25G26G 3G19G28G 7G 8G17G27G11
  22643058.017    22643060.656   -11738141.02749  -9107132.04746
  24993652.614    24993654.076    -3299052.93649  -2548137.01145
  24216581.479    24216584.342    -5330414.64749  -4097467.29445
  21830173.615    21830174.258   -17547876.83149 -13642228.00447
  22908240.365    22908242.252   -15695177.18949 -12173662.26046
  21383431.349    21383433.032   -21118416.26249 -16430583.53147
  20828845.910    20828848.766   -23787236.86949 -18498075.67947
  24454084.170    24454087.523    -5888955.87349  -4559868.46345
  21760017.743    21760020.450   -22124178.38749 -17202717.01247
  20245724.547    20245725.969   -28046395.25649 -21780263.10848
 09  1  1  0 56  0.0000000  0 10G25G26G 3G19G28G 7G 8G17G27G11
  22660727.635    22660729.865   -11645286.65249  -9034778.00846
  24997788.671    24997792.489    -3277319.27449  -2531201.71145
  24234494.259    24234498.731    -5236274.54549  -4024111.41444
  21843556.411    21843556.886   -17477549.25549 -13587427.31247
  22893092.692    22893094.112   -15774779.15549 -12235689.76646
  21397502.617    21397504.189   -21044472.87149 -16372965.31747
  20826475.961    20826478.636   -23799691.21949 -18507780.37147
  24438162.522    24438164.941    -5972627.48349  -4625067.10045
  21756735.705    21756738.584   -22141425.43049 -17216156.27347
  20239279.398    20239280.538   -28080266.11249 -21806655.97448
 09  1  1  0 56 30.0000000  0 10G25G26G 3G19G28G 7G 8G17G27G11
  22678443.750    22678444.929   -11552189.34149  -8962234.67346
  25002028.366    25002030.184    -3255041.56149  -2513842.47645
  24252407.488    24252410.843    -5142137.01549  -3950757.53844
  21856967.596    21856968.385   -17407072.52149 -13532510.39547
  22877957.280    22877958.951   -15854316.60549 -12297666.99746
  21411658.757    21411660.633   -20970080.68649 -16314997.39947
  20824231.744    20824234.499   -23811484.47049 -18516969.93347
  24422262.160    24422264.578    -6056182.82949  -4690175.13945
  21753555.057    21753558.059   -22158139.07449 -17229179.90047
  20232939.477    20232940.800   -28113581.69249 -21832616.16448
 09  1  1  0 57  0.0000000  0 10G25G26G 3G19G28G 7G 8G17G27G11
  22696204.984    22696206.847   -11458852.11549  -8889504.37546
  25006370.980    25006373.431    -3232221.67149  -2496060.78145
  24270319.637    24270324.038    -5048003.37449  -3877406.66044
  21870407.172    21870407.389   -17336448.67749 -13477478.84747
  22862834.009    22862836.078   -15933788.84649 -12359593.41246
  21425899.888    21425901.679   -20895242.55449 -16256681.98747
  20822113.471    20822116.367   -23822616.23749 -18525644.04747
  24406383.502    24406385.356    -6139621.82449  -4755192.51845
  21750476.369    21750479.327   -22174318.94949 -17241787.60147
  20226705.443    20226706.749   -28146341.85249 -21858143.56348
 09  1  1  0 57 30.0000000  0 10G25G26G 3G19G28G 7G 8G17G27G11
  22714012.027    22714014.361   -11365275.28349  -8816587.37746
  25010816.302    25010818.697    -3208858.92249  -2477856.09345
  24288232.926    24288238.626    -4953872.07349  -3804057.63044
  21883874.389    21883874.966   -17265676.53249 -13422331.73547
  22847724.080    22847725.720   -16013192.46149 -12421466.36346
  21440226.130    21440227.940   -20819958.81349 -16198019.34947
  20820121.710    20820124.382   -23833083.71249 -18533800.53347
  24390529.518    24390531.526    -6222941.77549  -4820117.11245
  21747499.339    21747502.403   -22189961.97549 -17253976.97947
  20220577.565    20220578.795   -28178543.81849 -21883236.00648
 09  1  1  0 58  0.0000000  0 11G25G26G 3G19G28G 7G32G 8G17G27G11
  22731864.008    22731866.533   -11271463.50149  -8743487.31046
  25015363.524    25015366.929    -3184956.66449  -2459230.93645
  24306146.125    24306146.313    -4859745.76349  -3730712.53144
  21897369.547    21897370.115   -17194759.53249 -13367071.75147
  22832627.251    22832629.317   -16092527.87149 -12483286.16546
  21454636.254    21454637.819   -20744233.73549 -16139012.82047
  24885063.469    24885068.711    -2924649.78949  -2234122.94245
  20818255.741    20818258.782   -23842888.26449 -18541440.45347
  24374695.050    24374697.957    -6306144.52049  -4884950.39245
  21744624.869    21744627.542   -22205069.26549 -17265748.89747
  20214555.844    20214557.124   -28210188.58349 -21907894.26848
 09  1  1  0 58 30.0000000  0 11G25G26G 3G19G28G 7G32G 8G17G27G11
  22749760.239    22749762.480   -11177418.71349  -8670205.68146
  25020015.764    25020018.968    -3160515.83149  -2440186.14645
  24324057.346    24324057.904    -4765624.38649  -3657371.25044
  21910891.865    21910892.740   -17123698.50749 -13311699.53447
  22817543.793    22817545.227   -16171793.16149 -12545051.32246
  21469130.051    21469131.383   -20668068.87249 -16079663.59047
  24869998.538    24870003.451    -3003817.27749  -2295811.88145
  20816516.555    20816519.357   -23852028.51749 -18548562.73447
  24358885.464    24358887.851    -6389228.89249  -4949691.43245
  21741852.149    21741854.948   -22219639.69949 -17277102.48747
  20208640.130    20208641.471   -28241274.84949 -21932117.32448
 09  1  1  0 59  0.0000000  0 11G25G26G 3G19G28G 7G32G 8G17G27G11
  22767698.890    22767702.238   -11083143.81949  -8596744.75446
  25024766.874    25024771.551    -3135538.23749  -2420723.10845
  24341965.748    24341969.380    -4671508.98249  -3584034.59144
  21924441.645    21924442.024   -17052495.26049 -13256216.50447
  22802473.556    22802474.645   -16250987.08649 -12606760.87246
  21483706.559    21483708.180   -20591467.22949 -16019974.01747
  24854929.320    24854936.040    -3083000.07548  -2357512.73745
  20814903.342    20814906.512   -23860504.26249 -18555167.21647
  24343096.955    24343100.057    -6472194.79649  -5014340.15445
  21739181.957    21739184.791   -22233672.92849 -17288037.47747
  20202831.051    20202832.168   -28271802.63349 -21955905.20348
 09  1  1  0 59 30.0000000  0 11G25G26G 3G19G28G 7G32G 8G17G27G11
  22785682.930    22785685.848   -10988641.33449  -8523106.46646
  25029623.332    25029628.087    -3110025.22649  -2400842.92045
  24359875.049    24359877.191    -4577399.83249  -3510702.81444
  21938017.956    21938018.632   -16981150.35949 -13200623.08847
  22787417.439    22787419.329   -16330107.95749 -12668413.49646
  21498366.171    21498367.914   -20514431.09849 -15959945.88647
  24839856.715    24839864.210    -3162195.15249  -2419223.11444
  20813417.301    20813420.214   -23868314.45049 -18561253.08247
  24327331.859    24327334.707    -6555041.77049  -5078896.21345
  21736613.606    21736616.919   -22247168.16149 -17298553.25047
  20197128.159    20197129.475   -28301771.17949 -21979257.31748
 09  1  1  1  0  0.0000000  0 11G25G26G 3G19G28G 7G32G 8G17G27G11
  22803709.570    22803711.211   -10893913.92949  -8449292.93146
  25034578.722    25034581.975    -3083978.55349  -2380546.84545
  24377781.173    24377784.426    -4483297.89649  -3437376.67144
  21951621.039    21951621.820   -16909665.60949 -13144920.70247
  22772374.513    22772376.923   -16409154.47549 -12730008.18046
  21513107.715    21513109.652   -20436962.89449 -15899581.06747
  24824787.197    24824792.424    -3241399.41549  -2480940.68645
  20812057.862    20812060.746   -23875458.55749 -18566819.92347
  24311589.787    24311592.155    -6637769.58449  -5143359.42745
  21734148.202    21734151.400   -22260124.87349 -17308649.39547
  20191531.933    20191533.087   -28331180.01349 -22002173.28948
 09  1  1  1  0 30.0000000  0 11G25G26G 3G19G28G 7G32G 8G17G27G11
  22821777.672    22821779.438   -10798964.38749  -8375306.30046
  25039638.019    25039640.280    -3057399.93749  -2359836.21245
  24395687.987    24395691.423    -4389203.86849  -3364056.67144
  21965250.474    21965251.102   -16838042.10849 -13089110.20247
  22757347.236    22757348.717   -16488125.46949 -12791544.02646
  21527931.343    21527932.823   -20359065.52449 -15838881.83747
  24809713.543    24809718.147    -3320610.21849  -2542663.25045
  20810825.176    20810827.929   -23881936.61149 -18571867.76247
  24295869.450    24295871.915    -6720378.04149  -5207729.64245
  21731785.088    21731787.597   -22272542.60649 -17318325.56147
  20186042.194    20186043.511   -28360028.39549 -22024652.54948
 09  1  1  1  1  0.0000000  0 11G25G26G 3G19G28G 7G32G 8G17G27G11
  22839887.655    22839889.567   -10703795.55249  -8301148.79646
  25044796.788    25044798.799    -3030291.40749  -2338712.68345
  24413592.851    24413597.213    -4295118.56449  -3290743.50744
  21978906.200    21978906.921   -16766281.61249 -13033192.95047
  22742334.589    22742336.349   -16567019.63949 -12853020.00346
  21542835.555    21542837.432   -20280741.66149 -15777850.27547
  24794639.528    24794644.045    -3399824.84049  -2604388.80345
  20809719.271    20809722.221   -23887747.86749 -18576396.02247
  24280172.706    24280175.470    -6802866.67649  -5272006.47345
  21729524.713    21729527.760   -22284420.94549 -17327581.42147
  20180659.330    20180660.420   -28388316.05249 -22046694.88148
 09  1  1  1  1 30.0000000  0 11G25G26G 3G19G28G 7G32G 8G17G27G11
  22858039.399    22858041.008   -10608410.51949  -8226822.82246
  25050054.098    25050057.941    -3002654.70949  -2317177.67045
  24431494.658    24431494.831    -4201042.96349  -3217437.86244
  21992587.349    21992588.443   -16694385.56049 -12977170.07147
  22727336.123    22727337.437   -16645835.87949 -12914435.26246
  21557820.771    21557822.855   -20201994.20749 -15716488.64247
  24779564.884    24779568.324    -3479040.89549  -2666115.50445
  20808740.179    20808743.358   -23892892.48049 -18580404.81847
  24264497.848    24264500.229    -6885235.83849  -5336190.21545
  21727367.077    21727369.969   -22295759.80949 -17336416.91047
  20175383.073    20175384.201   -28416042.90249 -22068300.21548
 09  1  1  1  2  0.0000000  0 11G25G26G 3G19G28G 7G32G 8G17G27G11
  22876230.265    22876233.626   -10512811.80049  -8152330.33446
  25055415.287    25055417.600    -2974491.76149  -2295232.56645
  24449392.328    24449396.635    -4106977.80849  -3144140.38344
  22006294.399    22006295.245   -16622355.40349 -12921042.68947
  22712353.125    22712354.686   -16724572.55449 -12975788.51346
  21572886.152    21572887.730   -20122825.41649 -15654798.69447
  24764491.709    24764496.092    -3558255.11749  -2727840.76945
  20807888.049    20807891.233   -23897369.83949 -18583893.67647
  24248846.823    24248849.833    -6967484.91149  -5400280.37745
  21725312.149    21725315.127   -22306558.69349 -17344831.62647
  20170213.512    20170214.836   -28443208.32049 -22089468.06948
 09  1  1  1  2 30.0000000  0 10G25G 3G19G28G 7G32G 8G17G27G11
  22894462.923    22894464.673   -10417001.66749  -8077673.10446
  24467289.308    24467293.465    -4012923.05749  -3070851.01944
  22020026.663    22020027.596   -16550191.86449 -12864811.38547
  22697385.027    22697387.364   -16803228.13349 -13037078.57146
  21588030.857    21588032.703   -20043237.55049 -15592782.19247
  24749417.215    24749421.644    -3637464.39749  -2789562.22845
  20807163.510    20807166.201   -23901179.17049 -18586861.99647
  24233218.972    24233220.450    -7049613.28649  -5464276.49345
  21723359.961    21723362.946   -22316816.57749 -17352824.79447
  20165150.946    20165152.492   -28469811.68249 -22110197.96448
 09  1  1  1  3  0.0000000  0 10G25G 3G19G28G 7G32G 8G17G27G11
  22912734.584    22912736.872   -10320982.60749  -8002853.08246
  24485189.286    24485190.796    -3918879.45749  -2997570.30044
  22033783.629    22033785.126   -16477896.03949 -12808476.98947
  22682433.388    22682435.029   -16881800.68049 -13098303.94146
  21603255.188    21603257.342   -19963233.02749 -15530441.02947
  24734346.408    24734352.347    -3716665.38049  -2851277.19445
  20806565.724    20806568.632   -23904319.99049 -18589309.39847
  24217613.485    24217614.874    -7131620.29249  -5528178.03345
  21721511.141    21721514.041   -22326532.80549 -17360395.89147
  20160195.677    20160197.093   -28495852.44749 -22130489.47448
 09  1  1  1  3 30.0000000  0 10G25G 3G19G28G 7G32G 8G17G27G11
  22931044.558    22931048.099   -10224758.01649  -7927872.89946
  24503082.279    24503083.301    -3824848.15148  -2924299.17044
  22047566.587    22047567.461   -16405470.16949 -12752041.26347
  22667497.398    22667499.228   -16960289.63349 -13159464.16046
  21618558.873    21618560.515   -19882815.29549 -15467777.88447
  24719275.871    24719282.172    -3795856.16049  -2912984.22545
  20806095.320    20806098.308   -23906792.66949 -18591236.17247
  24202031.083    24202033.976    -7213506.67749  -5591985.57045
  21719765.239    21719767.878   -22335707.68249 -17367545.15647
  20155347.493    20155348.622   -28521330.77649 -22150342.71248
 09  1  1  1  4  0.0000000  0 10G25G 3G19G28G 7G32G 8G17G27G11
  22949395.154    22949397.096   -10128330.65149  -7852734.72346
  24520971.375    24520975.402    -3730829.71348  -2851038.08644
  22061373.169    22061373.680   -16332915.05849 -12695504.83847
  22652577.867    22652579.143   -17038693.27349 -13220557.90746
  21633939.845    21633941.470   -19801986.77549 -15404794.64947
  24704211.061    24704214.568    -3875033.56349  -2974680.86145
  20805751.848    20805754.985   -23908596.67249 -18592641.89947
  24186471.434    24186473.729    -7295271.81349  -5655698.64145
  21718122.707    21718125.025   -22344340.67549 -17374272.17447
  20150606.216    20150607.576   -28546245.95749 -22169757.14048
 09  1  1  1  4 30.0000000  0 10G25G 3G19G28G 7G32G 8G17G27G11
  22967782.655    22967784.876   -10031704.43849  -7777441.58346
  24538863.109    24538863.392    -3636826.32148  -2777788.77044
  22075204.394    22075204.830   -16260233.72549 -12638870.05347
  22637674.314    22637676.024   -17117011.71449 -13281585.26046
  21649398.403    21649400.395   -19720751.69949 -15341494.61347
  24689147.029    24689150.110    -3954196.01849  -3036365.89945
  20805535.577    20805538.524   -23909733.30549 -18593527.59947
  24170934.930    24170937.513    -7376916.82849  -5719318.12846
  21716582.493    21716585.350   -22352432.85149 -17380577.77947
  20145971.754    20145973.159   -28570599.35649 -22188733.81348
 09  1  1  1  5  0.0000000  0 10G25G 3G19G28G 7G32G 8G17G27G11
  22986207.690    22986210.102    -9934879.47749  -7701993.58646
  24556745.159    24556748.300    -3542835.55948  -2704549.26844
  22089058.973    22089059.755   -16187424.54549 -12582135.64047
  22622787.580    22622789.252   -17195240.51549 -13342542.76446
  21664934.128    21664936.023   -19639109.90649 -15277877.65447
  24674086.595    24674090.955    -4033338.03649  -3098035.02845
  20805446.989    20805449.698   -23910199.65249 -18593890.99947
  24155420.490    24155423.404    -7458438.64749  -5782841.60345
  21715146.097    21715148.632   -22359981.32049 -17386459.71547
  20141445.008    20141446.380   -28594388.02149 -22207270.42948
 09  1  1  1  5 30.0000000  0 10G25G 3G19G28G 7G32G 8G17G27G11
  23004670.258    23004672.345    -9837859.08949  -7626393.31046
  24574630.267    24574630.811    -3448858.82648  -2631320.69044
  22102938.194    22102939.019   -16114489.25649 -12525302.95847
  22607918.863    22607920.098   -17273378.95049 -13403429.86646
  21680547.199    21680549.032   -19557064.79349 -15213946.41947
  24659027.810    24659035.048    -4112457.21449  -3159686.31945
  20805485.662    20805488.423   -23909996.18549 -18593732.46747
  24139931.713    24139933.926    -7539837.58349  -5846269.33145
  21713813.010    21713816.158   -22366986.04349 -17391917.94847
  20137025.617    20137026.810   -28617612.25649 -22225367.23248
 09  1  1  1  6  0.0000000  0 10G25G 3G19G28G 7G32G 8G17G27G11
  23023169.192    23023171.898    -9740646.43249  -7550643.21646
  24592507.971    24592510.640    -3354897.33048  -2558103.93844
  22116841.040    22116841.987   -16041429.81449 -12468373.53547
  22593067.055    22593068.327   -17351426.12149 -13464245.84446
  21696235.908    21696237.927   -19474619.18549 -15149703.11747
  24643978.978    24643983.412    -4191550.86249  -3221317.71245
  20805651.687    20805654.547   -23909123.54649 -18593052.50147
  24124465.150    24124467.581    -7621113.85549  -5909601.46345
  21712583.441    21712586.091   -22373447.39849 -17396952.78247
  20132713.672    20132714.756   -28640272.29849 -22243024.41248
 09  1  1  1  6 30.0000000  0 10G25G 3G19G28G 7G32G 8G17G27G11
  23041703.591    23041706.600    -9643244.15949  -7474745.35046
  24610383.126    24610391.977    -3260951.46548  -2484899.42044
  22130767.089    22130768.144   -15968247.37749 -12411348.27147
  22578232.695    22578234.375   -17429380.44649 -13524989.47146
  21712000.525    21712002.333   -19391775.57949 -15085149.67947
  24628933.984    24628938.241    -4270616.08449  -3282926.99845
  20805945.214    20805948.039   -23907581.11649 -18591850.61647
  24109021.192    24109024.750    -7702267.20049  -5972837.81945
  21711457.601    21711460.497   -22379364.97049 -17401563.88747
  20128509.023    20128510.254   -28662367.63549 -22260241.55848
 09  1  1  1  7  0.0000000  0 10G25G 3G19G28G 7G32G 8G17G27G11
  23060274.894    23060277.934    -9545650.64849  -7398698.47746
  24628262.299    24628267.358    -3167017.55348  -2411704.23444
  22144717.391    22144718.399   -15894938.64649 -12354224.59647
  22563417.101    22563418.798   -17507236.15249 -13585656.26646
  21727841.199    21727842.848   -19308532.54349 -15020284.99347
  24613894.745    24613898.703    -4349645.57049  -3344508.39845
  20806367.232    20806369.919   -23905364.44049 -18590123.34447
  24093603.855    24093605.026    -7783292.84249  -6035974.67745
  21710435.968    21710438.773   -22384734.28249 -17405747.78447
  20124412.719    20124413.928   -28683893.74449 -22277015.15448
 09  1  1  1  7 30.0000000  0 10G25G 3G19G28G 7G32G 8G17G27G11
  23078881.483    23078885.391    -9447873.12849  -7322508.22846
  24646133.287    24646139.883    -3073100.42048  -2338522.08444
  22158690.358    22158691.063   -15821509.46649 -12297007.06647
  22548619.915    22548621.844   -17584995.93749 -13646248.31046
  21743756.491    21743758.587   -19224897.44549 -14955114.81247
  24598861.443    24598865.913    -4428641.01349  -3406063.19944
  20806916.332    20806919.193   -23902478.13949 -18587874.28747
  24078208.943    24078211.153    -7864195.05849  -6099015.34745
  21709517.674    21709520.453   -22389559.62349 -17409507.80247
  20120423.740    20120425.018   -28704855.07649 -22293348.66048
 09  1  1  1  8  0.0000000  0 10G25G 3G19G28G 7G32G 8G17G27G11
  23097522.608    23097525.383    -9349916.31949  -7246178.27046
  24664002.926    24664004.362    -2979202.93648  -2265355.23444
  22172686.019    22172686.517   -15747963.20649 -12239698.30447
  22533840.297    22533842.752   -17662660.55149 -13706766.18946
  21759745.172    21759747.107   -19140875.06349 -14889642.84247
  24583837.643    24583839.772    -4507601.26649  -3467590.52745
  20807592.753    20807595.847   -23898924.10149 -18585104.91347
  24062837.204    24062839.382    -7944975.79049  -6161961.34345
  21708702.508    21708705.239   -22393842.58849 -17412845.18947
  20116542.058    20116543.340   -28725253.30449 -22309243.37648
 09  1  1  1  8 30.0000000  0 10G25G 3G19G28G 7G32G 8G17G27G11
  23116197.400    23116199.122    -9251782.01249  -7169709.99946
  24681867.918    24681869.726    -2885324.77548  -2192203.47044
  22186703.085    22186704.383   -15674300.07749 -12182298.47547
  22519080.435    22519082.112   -17740227.50249 -13767207.97246
  21775807.962    21775809.444   -19056466.95649 -14823870.30647
  24568817.741    24568822.366    -4586522.43749  -3529087.44545
  20808396.137    20808398.880   -23894701.47249 -18581814.55547
  24047487.651    24047489.114    -8025633.60449  -6224811.57646
  21707991.160    21707993.764   -22397582.20949 -17415759.18847
  20112767.761    20112769.122   -28745087.16649 -22324698.33148
 09  1  1  1  9  0.0000000  0 10G25G 3G19G28G 7G32G 8G17G27G11
  23134904.179    23134906.973    -9153472.69849  -7093105.37646
  24699721.728    24699731.541    -2791466.27648  -2119067.01344
  22200742.935    22200743.890   -15600521.19149 -12124808.45747
  22504338.651    22504340.717   -17817695.01949 -13827572.27546
  21791943.062    21791944.312   -18971675.74749 -14757799.25947
  24553809.112    24553813.408    -4665401.55149  -3590551.59145
  20809327.203    20809330.055   -23889809.76249 -18578002.84647
  24032163.489    24032166.870    -8106168.22749  -6287565.82145
  21707382.912    21707385.813   -22400778.23549 -17418249.61647
  20109100.879    20109102.292   -28764356.70249 -22339713.55048
 09  1  1  1  9 30.0000000  0 10G25G 3G19G28G 7G32G 8G17G27G11
  23153643.996    23153648.107    -9054990.61049  -7016366.11946
  24717584.083    24717589.131    -2697627.76648  -2045946.08644
  22214805.150    22214806.017   -15526626.95449 -12067228.54747
  22489616.592    22489618.126   -17895060.93849 -13887857.41246
  21808150.412    21808152.217   -18886503.84149 -14691431.55847
  24538805.908    24538810.556    -4744234.94048  -3651980.10544
  20810385.230    20810388.418   -23884248.61249 -18573669.49447
  24016861.363    24016862.354    -8186578.55949  -6350223.20745
  21706878.331    21706881.238   -22403429.81249 -17420315.79247
  20105541.683    20105542.983   -28783061.11449 -22354288.41248
 09  1  1  1 10  0.0000000  0 10G25G 3G19G28G 7G32G 8G17G27G11
  23172417.749    23172420.905    -8956338.10849  -6939494.05346
  24735435.794    24735441.548    -2603808.97948  -1972840.68544
  22228888.411    22228889.116   -15452618.24849 -12009559.44347
  22474913.751    22474915.491   -17972323.43149 -13948061.95946
  21824430.131    21824432.266   -18800953.24449 -14624768.77847
  24523810.949    24523818.405    -4823019.33248  -3713370.51744
  20811570.939    20811573.907   -23878017.75849 -18568814.29247
  24001583.729    24001586.247    -8266864.06149  -6412783.31145
  21706477.508    21706480.129   -22405536.34349 -17421957.25547
  20102089.903    20102091.290   -28801199.95049 -22368422.56348
 09  1  1  1 10 30.0000000  0 10G25G 3G19G28G 7G32G 8G17G27G11
  23191222.441    23191225.513    -8857517.52449  -6862491.03146
  24753286.157    24753288.193    -2510010.32648  -1899750.87244
  22242993.226    22242994.212   -15378496.15149 -11951801.97847
  22460231.176    22460232.945   -18049480.41949 -14008184.28146
  21840781.801    21840783.308   -18715026.53149 -14557812.92347
  24508830.919    24508836.469    -4901751.40748  -3774720.15844
  20812884.030    20812887.103   -23871116.98849 -18563437.08047
  23986330.019    23986330.912    -8347024.37549  -6475245.87945
  21706180.474    21706183.090   -22407097.47349 -17423173.73347
  20098745.868    20098747.112   -28818772.90849 -22382115.77248
 09  1  1  1 11  0.0000000  0 10G25G 3G19G28G 7G32G 8G17G27G11
  23210059.001    23210061.070    -8758532.32649  -6785359.74246
  24771130.283    24771138.375    -2416232.49148  -1826677.32044
  22257119.357    22257120.417   -15304262.34749 -11893957.47647
  22445569.496    22445570.885   -18126531.04449 -14068223.73146
  21857203.893    21857205.528   -18628727.04749 -14490566.60047
  24493860.603    24493864.355    -4980428.84849  -3836027.14744
  20814324.803    20814327.783   -23863547.35049 -18557538.67547
  23971099.303    23971100.205    -8427059.59249  -6537610.97346
  21705986.988    21705989.771   -22408113.74649 -17423965.64747
  20095509.458    20095510.668   -28835780.47049 -22395368.41048
 09  1  1  1 11 30.0000000  0 10G25G 3G19G28G 7G32G 8G17G27G11
  23228926.649    23228928.409    -8659385.44949  -6708102.46446
  24788973.121    24788974.455    -2322476.62149  -1753620.87544
  22271266.473    22271267.184   -15229918.18249 -11836026.97247
  22430927.512    22430928.838   -18203473.97049 -14128179.25546
  21873696.585    21873698.207   -18542057.76249 -14423032.11747
  24478899.760    24478902.230    -5059048.85449  -3897289.40144
  20815892.178    20815895.126   -23855309.25849 -18551119.40147
  23955891.971    23955893.961    -8506970.05349  -6599878.83546
  21705897.620    21705899.970   -22408585.37349 -17424333.16147
  20092380.644    20092381.820   -28852222.83549 -22408180.63748
 09  1  1  1 12  0.0000000  0 10G25G 3G19G28G 7G32G 8G17G27G11
  23247823.497    23247826.250    -8560080.70749  -6630722.17946
  24806809.573    24806814.252    -2228744.61149  -1680583.03744
  22285434.185    22285435.327   -15155465.83749 -11778012.17847
  22416306.394    22416307.835   -18280308.75249 -14188050.50346
  21890258.499    21890260.480   -18455022.86549 -14355212.74247
  24463946.742    24463952.616    -5137609.58049  -3958505.48044
  20817586.934    20817589.762   -23846403.73249 -18544180.04847
  23940709.222    23940711.520    -8586756.31449  -6662049.91046
  21705911.290    21705913.631   -22408513.25549 -17424276.97647
  20089358.946    20089360.314   -28868101.23949 -22420553.41848
 09  1  1  1 12 30.0000000  0 10G25G 3G19G28G 7G32G 8G17G27G11
  23266750.774    23266753.126    -8460618.69349  -6553219.34246
  24824641.139    24824646.185    -2135034.80748  -1607562.45644
  22299623.002    22299623.965   -15080904.30349 -11719912.29547
  22401706.321    22401707.701   -18357031.50749 -14247834.47046
  21906890.775    21906892.310   -18367622.88049 -14287108.88147
  24449010.932    24449016.654    -5216105.77848  -4019671.34344
  20819408.863    20819412.040   -23836829.08149 -18536719.29647
  23925551.625    23925552.620    -8666415.93349  -6724122.32346
  21706028.389    21706031.203   -22407895.53449 -17423795.64347
  20086445.473    20086446.724   -28883413.30249 -22432484.89648
 09  1  1  1 13  0.0000000  0 10G25G 3G19G28G 7G32G 8G17G27G11
  23285707.550    23285709.700    -8361002.45649  -6475596.35146
  24842467.548    24842473.279    -2041348.11249  -1534559.89844
  22313832.325    22313832.627   -15006235.23649 -11661728.63347
  22387127.984    22387129.574   -18433641.22949 -14307530.35047
  21923591.194    21923592.984   -18279860.89149 -14218722.94647
  24434085.105    24434092.159    -5294534.87449  -4080784.86244
  20821358.234    20821361.289   -23826585.66649 -18528737.42847
  23910415.764    23910418.431    -8745948.86449  -6786096.02646
  21706250.056    21706252.374   -22406732.33849 -17422889.26747
  20083639.176    20083640.363   -28898159.43549 -22443975.38648
 09  1  1  1 13 30.0000000  0 10G25G 3G19G28G 7G32G 8G17G27G11
  23304692.297    23304694.729    -8261234.74149  -6397855.31046
  24860294.496    24860295.270    -1947684.57548  -1461575.40344
  22328061.585    22328062.792   -14931459.65049 -11603461.94947
  22372571.711    22372573.267   -18510136.16649 -14367136.78747
  21940360.445    21940361.766   -18191739.81049 -14150057.19847
  24419175.616    24419182.332    -5372893.76249  -4141843.68944
  20823434.656    20823437.756   -23815673.90249 -18520234.77147
  23895304.785    23895307.003    -8825355.19849  -6847971.09046
  21706575.331    21706577.813   -22405023.76849 -17421557.92447
  20080940.834    20080941.762   -28912339.79049 -22455025.01148
 09  1  1  1 14  0.0000000  0 10G25G 3G19G28G 7G32G 8G17G27G11
  23323704.745    23323707.595    -8161319.72749  -6319999.48146
  24878113.321    24878117.209    -1854046.51749  -1388610.74644
  22342310.630    22342311.354   -14856580.35649 -11545114.47347
  22358037.203    22358038.276   -18586516.23349 -14426653.73047
  21957196.369    21957198.046   -18103263.80849 -14081114.87947
  24404278.060    24404282.078    -5451181.08749  -4202846.82844
  20825637.981    20825641.237   -23804095.76349 -18511212.85547
  23880218.719    23880221.949    -8904636.06649  -6909748.38346
  21707003.554    21707006.398   -22402771.57249 -17419802.97647
  20078349.608    20078350.926   -28925956.08949 -22465635.10748
 09  1  1  1 14 30.0000000  0 10G25G 3G19G28G 7G32G 8G17G27G11
  23342744.984    23342747.857    -8061263.50549  -6242033.62945
  24895925.729    24895928.378    -1760437.78948  -1315668.95444
  22356578.413    22356579.339   -14781601.75749 -11486689.60947
  22343523.471    22343525.865   -18662782.85449 -14486082.26247
  21974099.687    21974101.234   -18014438.81649 -14011900.62947
  24389393.035    24389396.330    -5529396.94048  -4263794.25844
  20827967.128    20827970.400   -23791854.76249 -18501674.42247
  23865155.137    23865157.852    -8983794.64649  -6971430.36946
  21707535.296    21707537.952   -22399978.97049 -17417626.93647
  20075865.408    20075866.375   -28939011.55449 -22475808.18948
 09  1  1  1 15  0.0000000  0 10G25G 3G19G28G 7G32G 8G17G27G11
  23361813.523    23361816.827    -7961061.57149  -6163954.23245
  24913732.832    24913738.465    -1666851.64548  -1242744.80144
  22370866.581    22370867.641   -14706517.60749 -11428182.49447
  22329033.752    22329035.549   -18738927.31049 -14545415.60447
  21991069.260    21991071.577   -17925260.71649 -13942411.22647
  24374525.427    24374529.352    -5607531.32849  -4324678.15345
  20830424.107    20830427.399   -23778944.25949 -18491614.30047
  23850117.487    23850119.217    -9062823.26449  -7033011.09646
  21708170.526    21708173.780   -22396638.76049 -17415024.17947
  20073488.923    20073490.300   -28951499.10249 -22485538.74448
 09  1  1  1 15 30.0000000  0 10G25G 3G19G28G 7G32G 8G17G27G11
  23380909.103    23380911.422    -7860718.13749  -6085764.57645
  24931537.955    24931545.067    -1573290.07048  -1169839.76444
  22385174.326    22385174.750   -14631330.47449 -11369595.14647
  22314567.057    22314568.772   -18814949.66349 -14604653.80247
  22008105.685    22008107.956   -17835733.81749 -13872650.02847
  24359674.009    24359677.770    -5685582.53949  -4385497.27445
  20833008.109    20833011.044   -23765366.10949 -18481033.93347
  23835103.461    23835104.941    -9141723.39549  -7094491.70346
  21708909.904    21708913.094   -22392752.57449 -17411995.99447
  20071220.423    20071221.660   -28963420.50149 -22494828.14448
 09  1  1  1 16  0.0000000  0 10G25G 3G19G28G 7G32G 8G17G27G11
  23400029.926    23400031.847    -7760237.22849  -6007467.80545
  24949340.201    24949340.406    -1479754.65349  -1096955.13644
  22399500.898    22399501.876   -14556042.60849 -11310929.29247
  22300124.105    22300125.924   -18890849.37449 -14663796.43347
  22025207.346    22025210.203   -17745862.32649 -13802620.30447
  24344837.190    24344841.355    -5763548.85149  -4446250.24945
  20835718.532    20835721.940   -23751121.92449 -18469934.58147
  23820113.598    23820115.383    -9220495.94649  -7155872.89046
  21709753.221    21709756.437   -22388321.80249 -17408543.45247
  20069059.219    20069060.439   -28974776.96649 -22503677.33948
 09  1  1  1 16 30.0000000  0 10G25G 3G19G28G 7G32G 8G17G27G11
  23419176.022    23419177.996    -7659620.84749  -5929065.45145
  24967130.485    24967135.465    -1386245.31448  -1024090.79644
  22413846.927    22413848.043   -14480654.34549 -11252185.20647
  22285704.358    22285706.503   -18966623.93849 -14722841.54947
  22042374.332    22042377.117   -17655648.19849 -13732323.60447
  24330016.440    24330022.271    -5841426.50349  -4506934.14145
  20838555.978    20838559.208   -23736211.43049 -18458316.02547
  23805146.970    23805150.007    -9299139.68849  -7217153.71046
  21710700.085    21710703.059   -22383346.00249 -17404666.21247
  20067005.821    20067006.887   -28985568.12549 -22512086.03748
 09  1  1  1 17  0.0000000  0 10G25G 3G19G28G 7G32G 8G17G27G11
  23438348.229    23438349.498    -7558872.03749  -5850559.92145
  24984920.140    24984926.730    -1292762.70048   -951247.31344
  22428211.902    22428213.023   -14405167.32749 -11193364.16947
  22271309.044    22271311.259   -19042272.01249 -14781788.09847
  22059606.342    22059609.126   -17565094.66249 -13661762.42947
  24315215.237    24315221.082    -5919212.87949  -4567546.93245
  20841519.936    20841523.313   -23720635.74449 -18446179.13447
  23790205.973    23790208.680    -9377655.36949  -7278334.75146
  21711750.558    21711753.637   -22377825.61649 -17400364.62747
  20065059.688    20065060.992   -28995794.50449 -22520054.64348
 09  1  1  1 17 30.0000000  0 10G25G 3G19G28G 7G32G 8G17G27G11
  23457543.640    23457546.396    -7457993.92749  -5771953.63045
  25002704.758    25002707.887    -1199307.78148   -878425.42144
  22442595.135    22442595.768   -14329583.20049 -11134467.45847
  22256937.952    22256940.126   -19117792.49949 -14840635.22947
  22076902.179    22076904.343   -17474205.35349 -13590939.60647
  24300429.832    24300434.658    -5996905.27049  -4628086.48745
  20844610.257    20844613.349   -23704395.63749 -18433524.51347
  23775289.350    23775292.340    -9456042.64349  -7339415.72246
  21712904.579    21712907.788   -22371761.22849 -17395639.13347
  20063221.091    20063222.242   -29005456.97749 -22527583.83948
 09  1  1  1 18  0.0000000  0 10G25G 3G19G28G 7G32G 8G17G27G11
  23476763.845    23476767.036    -7356989.02649  -5693248.56145
  25020485.718    25020490.473    -1105880.62249   -805625.13044
  22456996.385    22456997.553   -14253902.47049 -11075495.48646
  22242591.924    22242593.097   -19193183.31549 -14899381.31847
  22094261.661    22094263.647   -17382982.60649 -13519856.97547
  24285664.095    24285667.700    -6074500.50349  -4688550.30445
  20847827.359    20847830.328   -23687491.24749 -18420352.26947
  23760397.639    23760399.872    -9534300.95949  -7400396.23346
  21714162.298    21714165.076   -22365152.96049 -17390489.84747
  20061489.730    20061490.948   -29014554.95449 -22534673.17548
 09  1  1  1 18 30.0000000  0 10G25G 3G19G28G 7G32G 8G17G27G11
  23496009.201    23496011.533    -7255860.62549  -5614447.24745
  25038257.505    25038260.727    -1012482.27348   -732847.30444
  22471415.922    22471416.768   -14178126.90049 -11016449.60446
  22228270.778    22228271.615   -19268443.46349 -14958025.58347
  22111683.320    22111685.241   -17291429.92149 -13448517.23647
  24270917.783    24270921.480    -6151996.09049  -4748936.50845
  20851170.285    20851173.139   -23669924.21449 -18406663.68547
  23745530.092    23745532.232    -9612430.99749  -7461276.76146
  21715523.026    21715525.706   -22358001.65749 -17384917.41547
  20059865.664    20059866.863   -29023089.58249 -22541323.53648
 09  1  1  1 19  0.0000000  0 10G25G 3G19G28G 7G32G 8G17G27G11
  23515274.854    23515278.285    -7154611.32449  -5535551.72845
  25056025.574    25056027.053     -919113.30048   -660092.37344
  22485853.717    22485854.634   -14102257.08449 -10957330.28646
  22213974.186    22213975.927   -19343570.72349 -15016566.29347
  22129167.636    22129169.754   -17199549.75949 -13376922.32847
  24256191.348    24256194.626    -6229388.71149  -4809242.48745
  20854639.094    20854642.106   -23651694.65349 -18392458.83547
  23730687.007    23730689.391    -9690432.35549  -7522057.01846
  21716987.303    21716989.738   -22350307.18249 -17378921.73547
  20058348.744    20058349.978   -29031060.94149 -22547534.98348
 09  1  1  1 19 30.0000000  0 10G25G 3G19G28G 7G32G 8G17G27G11
  23534563.651    23534567.825    -7053245.53649  -5456565.43245
  25073786.899    25073792.382     -825775.99948   -587362.08344
  22500308.630    22500309.375   -14026296.28349 -10898140.08146
  22199703.315    22199704.497   -19418565.48049 -15075003.76147
  22146713.589    22146715.138   -17107346.80649 -13305075.90547
  24241482.151    24241487.216    -6306677.09349  -4869467.20845
  20858233.575    20858236.597   -23632805.27549 -18377739.84847
  23715868.686    23715869.565    -9768306.36149  -7582738.05446
  21718554.348    21718557.225   -22342071.77649 -17372504.55047
  20056938.610    20056939.945   -29038471.29649 -22553309.28848
 09  1  1  1 20  0.0000000  0 10G25G 3G19G28G 7G32G 8G17G27G11
  23553875.771    23553879.033    -6951763.52249  -5377488.59245
  25091543.036    25091545.997     -732468.04548   -514654.65544
  22514781.051    22514781.330   -13950242.66049 -10838877.54746
  22185458.017    22185459.624   -19493423.51449 -15133334.69147
  22164320.250    22164321.736   -17014821.73449 -13232978.47647
  24226796.218    24226800.501    -6383855.76249  -4929606.46045
  20861954.360    20861957.220   -23613253.92249 -18362505.03947
  23701074.168    23701076.263    -9846050.46649  -7643317.86246
  21720225.091    21720227.525   -22333293.20449 -17365664.12447
  20055635.892    20055636.884   -29045318.27349 -22558644.59648
 09  1  1  1 20 30.0000000  0 10G25G 3G19G28G 7G32G 8G17G27G11
  23573209.297    23573211.442    -6850168.50449  -5298323.68145
  25109293.778    25109297.395     -639190.44948   -441970.92244
  22529270.591    22529271.853   -13874098.00049 -10779544.07046
  22171239.190    22171241.111   -19568143.56149 -15191558.10647
  22181988.369    22181989.745   -16921977.98349 -13160632.71947
  24212131.420    24212135.773    -6460922.21149  -4989658.30045
  20865800.217    20865803.553   -23593042.13449 -18346755.60547
  23686304.742    23686307.192    -9923664.80549  -7703796.54746
  21721998.603    21722001.597   -22323972.42449 -17358401.19247
  20054439.750    20054441.207   -29051602.86049 -22563541.67548
 09  1  1  1 21  0.0000000  0 10G25G 3G19G28G 7G32G 8G17G27G11
  23592563.778    23592566.192    -6748463.49849  -5219073.06545
  25127037.594    25127041.331     -545943.68149   -369311.19244
  22543778.027    22543778.756   -13797863.38349 -10720140.48846
  22157047.105    22157048.528   -19642724.03649 -15249672.75447
  22199715.847    22199717.106   -16828818.60549 -13088041.03247
  24197486.259    24197493.111    -6537873.57949  -5049620.43545
  20869772.227    20869775.080   -23572170.57449 -18330492.06747
  23671559.390    23671561.338   -10001149.61849  -7764174.31446
  21723875.454    21723878.237   -22314110.04049 -17350716.23447
  20053350.934    20053352.192   -29057325.48249 -22568000.85648
 09  1  1  1 21 30.0000000  0 10G25G 3G19G28G 7G32G 8G17G27G11
  23611937.176    23611941.176    -6646651.15949  -5139738.82545
  25144776.553    25144780.306     -452728.10349   -296675.73444
  22558302.102    22558302.488   -13721539.90849 -10660667.66346
  22142881.912    22142883.429   -19717163.09449 -15307677.21247
  22217502.623    22217504.193   -16735346.47849 -13015205.63647
  24182866.700    24182872.618    -6614706.89149  -5109490.59445
  20873869.221    20873872.193   -23550640.68649 -18313715.54247
  23656839.311    23656841.346   -10078504.33749  -7824450.70346
  21725855.014    21725858.381   -22303706.49649 -17342609.59447
  20052368.754    20052370.138   -29062486.66249 -22572022.55348
 09  1  1  1 22  0.0000000  0 10G25G 3G19G28G 7G32G 8G17G27G11
  23631331.350    23631335.817    -6544734.21449  -5060323.06245
  25162507.748    25162511.965     -359544.08048   -224064.89944
  22572842.456    22572843.410   -13645128.21849 -10601126.10546
  22128743.460    22128745.335   -19791458.73949 -15365569.91847
  22235348.938    22235350.458   -16641564.42949 -12942128.74647
  24168269.085    24168273.544    -6691418.91549  -5169266.25445
  20878091.258    20878094.491   -23528452.89349 -18296426.36347
  23642143.365    23642145.544   -10155728.94449  -7884625.71346
  21727938.151    21727940.792   -22292762.19549 -17334081.58547
  20051493.240    20051494.818   -29067086.83749 -22575607.09848
 09  1  1  1 22 30.0000000  0 10G25G 3G19G28G 7G32G 8G17G27G11
  23650744.890    23650748.400    -6442715.54149  -4980828.04045
  25180234.446    25180238.696     -266392.68649   -151479.47044
  22587399.868    22587400.807   -13568629.97549 -10541517.11246
  22114633.428    22114634.789   -19865609.92149 -15423350.06447
  22253253.113    22253254.892   -16547475.79349 -12868812.95446
  24153694.135    24153699.398    -6768007.08249  -5228945.38345
  20882438.549    20882441.538   -23505607.86149 -18278625.05347
  23627473.381    23627475.419   -10232823.52249  -7944699.40446
  21730123.549    21730126.038   -22281277.59249 -17325132.55647
  20050724.602    20050725.744   -29071126.55849 -22578754.92948
 09  1  1  1 23  0.0000000  0  9G25G19G28G 7G32G 8G17G27G11
  23670176.238    23670180.676    -6340597.95649  -4901255.92845
  22601973.140    22601974.593   -13492045.90049 -10481841.23246
  22100550.587    22100552.288   -19939615.23649 -15481016.55047
  22271215.628    22271216.941   -16453083.63849 -12795260.65146
  24139145.477    24139150.448    -6844468.10449  -5288525.41645
  20886910.763    20886913.656   -23482106.84649 -18260312.58447
  23612827.260    23612830.075   -10309787.84849  -8004671.58246
  21732411.864    21732414.466   -22269253.26049 -17315762.96247
  20050062.301    20050063.595   -29074606.38249 -22581466.47548
 09  1  1  1 23 30.0000000  0  9G25G19G28G 7G32G 8G17G27G11
  23689626.863    23689631.212    -6238384.43249  -4821609.04345
  22616562.869    22616563.878   -13415377.20049 -10422099.40446
  22086495.837    22086497.929   -20013472.21549 -15538567.44047
  22289235.313    22289236.921   -16358390.60749 -12721473.89246
  24124620.413    24124624.547    -6920799.23749  -5348004.25445
  20891507.540    20891510.315   -23457950.87949 -18241489.76247
  23598205.782    23598208.260   -10386621.83749  -8064542.21746
  21734802.110    21734805.106   -22256689.96649 -17305973.39947
  20049506.575    20049507.888   -29077526.99449 -22583742.27148
 09  1  1  1 24  0.0000000  0  9G25G19G28G 7G32G 8G17G27G11
  23709096.134    23709098.889    -6136076.90149  -4741888.90745
  22631168.368    22631169.889   -13338624.31449 -10362291.97846
  22072470.257    22072471.970   -20087178.59149 -15596000.98047
  22307311.450    22307313.140   -16263399.12049 -12647454.58146
  24110118.792    24110123.006    -6996996.73949  -5407378.95545
  20896228.462    20896231.696   -23433140.57649 -18222157.06947
  23583610.386    23583613.050   -10463324.57849  -8124310.58446
  21737295.453    21737298.463   -22243587.63049 -17295763.79447
  20049057.426    20049058.455   -29079888.18049 -22585582.15748
 09  1  1  1 24 30.0000000  0  9G25G19G28G 7G32G 8G17G27G11
  23728581.895    23728585.503    -6033678.74949  -4662098.17645
  22645790.116    22645790.574   -13261788.79749 -10302420.17646
  22058472.887    22058474.703   -20160733.43649 -15653316.45147
  22325443.887    22325445.280   -16168113.01149 -12573205.69446
  24095646.011    24095650.396    -7073058.18149  -5466647.68245
  20901074.097    20901077.241   -23407677.27449 -18202315.54747
  23569039.004    23569040.835   -10539896.34049  -8183976.87646
  21739891.446    21739893.956   -22229947.28749 -17285134.97247
  20048714.194    20048715.417   -29081691.05349 -22586986.98848
 09  1  1  1 25  0.0000000  0  9G25G19G28G 7G32G 8G17G27G11
  23748083.304    23748088.741    -5931193.04449  -4582239.21945
  22660426.673    22660427.409   -13184871.98549 -10242485.02946
  22044505.556    22044506.868   -20234135.26049 -15710512.68047
  22343631.726    22343633.464   -16072535.62649 -12498729.83346
  24081198.473    24081203.163    -7148980.83949  -5525808.23845
  20906043.607    20906047.119   -23381562.36349 -18181966.28347
  23554493.224    23554494.555   -10616337.70549  -8243541.56346
  21742589.249    21742592.192   -22215769.73549 -17274087.53947
  20048477.118    20048478.408   -29082936.61949 -22587957.56248
 09  1  1  1 25 30.0000000  0  9G25G19G28G 7G32G 8G17G27G11
  23767602.731    23767607.577    -5828622.31649  -4502314.01745
  22675078.400    22675079.300   -13107874.47549 -10182486.98946
  22030567.156    22030568.499   -20307382.03949 -15767588.09547
  22361874.217    22361876.735   -15976669.53749 -12424029.01046
  24066776.807    24066782.385    -7224761.55349  -5584858.16545
  20911137.081    20911140.044   -23354796.46149 -18161109.74947
  23539971.367    23539973.622   -10692648.01849  -8303004.12746
  21745389.190    21745391.889   -22201055.43149 -17262621.86047
  20048346.169    20048347.476   -29083625.29049 -22588494.18348
 09  1  1  1 26  0.0000000  0  9G25G19G28G 7G32G 8G17G27G11
  23787136.608    23787140.888    -5725968.84949  -4422324.32945
  22689746.076    22689746.708   -13030796.71749 -10122426.42646
  22016658.854    22016660.314   -20380471.65249 -15824541.03647
  22380171.510    22380173.884   -15880517.28349 -12349105.20746
  24052385.780    24052388.886    -7300396.65749  -5643794.66545
  20916354.189    20916357.377   -23327380.54149 -18139746.70447
  23525475.562    23525476.772   -10768826.49349  -8362363.97646
  21748290.941    21748294.189   -22185804.43449 -17250737.97647
  20048320.986    20048322.252   -29083757.05249 -22588596.85348
 09  1  1  1 26 30.0000000  0  9G25G19G28G 7G32G 8G17G27G11
  23806687.273    23806691.070    -5623235.23049  -4342272.19645
  22704428.381    22704429.785   -12953639.69349 -10062304.09846
  22002780.082    22002781.862   -20453402.07849 -15881369.94147
  22398522.256    22398524.719   -15784081.63349 -12273960.57346
  24038020.385    24038024.116    -7375883.15849  -5702615.35245
  20921694.542    20921698.167   -23299315.44449 -18117877.82247
  23511004.640    23511005.067   -10844873.21349  -8421621.16746
  21751295.282    21751298.654   -22170017.47549 -17238436.45947
  20048401.870    20048403.250   -29083332.46949 -22588266.01048
 09  1  1  1 27  0.0000000  0  9G25G19G28G 7G32G 8G17G27G11
  23826251.609    23826254.883    -5520426.60449  -4262161.61245
  22719126.066    22719126.566   -12876406.83449 -10002122.67146
  21988931.829    21988933.687   -20526173.73049 -15938075.11747
  22416926.755    22416928.454   -15687368.26749 -12198599.53946
  24023684.190    24023687.421    -7451220.35649  -5761319.60145
  20927158.200    20927161.199   -23270604.80249 -18095505.90247
  23496557.642    23496559.190   -10920790.21449  -8480777.26546
  21754401.042    21754404.127   -22153697.54149 -17225719.63747
  20048587.921    20048589.029   -29082354.68049 -22587504.09048
 09  1  1  1 27 30.0000000  0  9G25G19G28G 7G32G 8G17G27G11
  23845828.327    23845832.476    -5417542.89649  -4181992.52745
  22733837.632    22733838.096   -12799096.15049  -9941880.60046
  21975115.624    21975117.092   -20598782.16649 -15994653.12547
  22435383.237    22435385.647   -15590377.01649 -12123021.96646
  24009377.884    24009381.635    -7526402.46049  -5819903.00345
  20932745.192    20932748.018   -23241246.87649 -18072629.60947
  23482135.406    23482138.293   -10996574.41749  -8539829.87546
  21757608.641    21757611.364   -22136842.70949 -17212586.01247
  20048879.559    20048880.869   -29080821.61249 -22586309.49048
 09  1  1  1 28  0.0000000  0  9G25G19G28G 7G32G 8G17G27G11
  23865420.663    23865424.908    -5314587.07149  -4101767.25345
  22748563.167    22748564.493   -12721708.79949  -9881578.78446
  21961329.728    21961331.493   -20671225.64549 -16051102.60547
  22453892.244    22453894.706   -15493111.29149 -12047230.52846
  23995100.807    23995104.850    -7601426.59749  -5878363.31245
  20938454.440    20938457.554   -23211242.96749 -18049249.95047
  23467740.691    23467742.757   -11072226.02449  -8598779.18146
  21760917.210    21760920.435   -22119453.54549 -17199036.02547
  20049276.934    20049278.301   -29078733.96049 -22584682.74748
 09  1  1  1 28 30.0000000  0  9G25G19G28G 7G32G 8G17G27G11
  23885026.460    23885029.545    -5211562.21749  -4021488.18545
  22763304.652    22763305.527   -12644245.98749  -9821218.17446
  21947576.059    21947577.432   -20743502.74149 -16107422.42447
  22472453.024    22472455.236   -15395574.44249 -11971227.81246
  23980854.040    23980858.992    -7676290.08549  -5936698.40145
  20944286.782    20944289.676   -23180594.84249 -18025368.30447
  23453368.371    23453371.454   -11147745.26049  -8657625.32446
  21764328.189    21764330.853   -22101531.57749 -17185070.86547
  20049779.596    20049780.766   -29076092.62349 -22582624.55848
 09  1  1  1 29  0.0000000  0  9G25G19G28G 7G32G 8G17G27G11
  23904643.680    23904647.332    -5108470.76349  -3941157.22545
  22778059.118    22778060.735   -12566708.53349  -9760799.41346
  21933853.989    21933855.533   -20815611.64849 -16163611.18447
  22491064.770    22491067.022   -15297769.43749 -11895016.15446
  23966639.441    23966644.434    -7750989.81949  -5994905.88945
  20950241.260    20950244.278   -23149303.69849 -18000985.60747
  23439023.362    23439025.564   -11223131.50649  -8716367.86246
  21767839.568    21767842.641   -22083077.13049 -17170690.79147
  20050387.366    20050388.512   -29072898.58249 -22580135.69348
 09  1  1  1 29 30.0000000  0 10G25G19G28G 7G32G 8G17G27G20G11
  23924272.861    23924275.504    -5005315.97749  -3860776.92345
  22792828.004    22792829.353   -12489097.63649  -9700323.41546
  21920164.506    21920166.015   -20887550.71149 -16219667.59747
  22509726.940    22509729.158   -15199699.52849 -11818598.08046
  23952456.469    23952460.517    -7825523.13949  -6052983.71645
  20956317.573    20956320.845   -23117371.09249 -17976103.06547
  23424702.726    23424705.868   -11298385.31049  -8775007.19846
  21771452.937    21771455.886   -22064091.26649 -17155896.62747
                                   -974695.05749   -719540.79043
  20051100.362    20051101.335   -29069152.55649 -22577216.71048
 09  1  1  1 30  0.0000000  0  9G25G19G28G 7G32G 8G17G27G11
  23943915.442    23943918.109    -4902100.17849  -3780349.05545
  22807610.680    22807612.242   -12411413.92949  -9639790.67846
  21906507.610    21906509.098   -20959317.96649 -16275590.14147
  22528438.756    22528440.944   -15101367.49849 -11741975.74446
  23938305.546    23938309.625    -7899886.70249  -6110929.27145
  20962516.022    20962519.163   -23084798.09849 -17950721.52347
  23410408.262    23410411.078   -11373506.07749  -8833542.85846
  21775166.736    21775169.250   -22044574.58049 -17140688.83047
  20051917.986    20051919.227   -29064855.23749 -22573868.14648
 09  1  1  1 30 30.0000000  0  9G25G19G28G 7G32G 8G17G27G11
  23963567.168    23963570.982    -4798826.79949  -3699876.34745
  22822406.996    22822408.070   -12333659.09449  -9579202.52446
  21892883.812    21892885.359   -21030912.01549 -16331377.70647
  22547200.188    22547201.901   -15002777.07549 -11665152.06846
  23924187.030    23924191.271    -7974078.19449  -6168740.74945
  20968836.217    20968839.213   -23051586.70949 -17924842.52747
  23396138.590    23396141.439   -11448494.21249  -8891975.17546
  21778981.205    21778984.216   -22024528.78549 -17125068.74447
  20052840.417    20052841.568   -29060008.42349 -22570091.41548
 09  1  1  1 31  0.0000000  0  9G25G19G28G 7G32G 8G17G27G11
  23983230.585    23983234.086    -4695498.01749  -3619360.43145
  22837217.134    22837217.993   -12255833.36149  -9518559.12546
  21879293.260    21879295.072   -21102330.54949 -16387028.51047
  22566010.036    22566011.635   -14903930.64049 -11588128.89946
  23910102.900    23910106.687    -8048094.07949  -6226415.40645
  20975277.348    20975280.364   -23017737.74149 -17898466.71947
  23381893.352    23381896.496   -11523349.31749  -8950303.83346
  21782896.435    21782899.486   -22003954.22349 -17109036.63247
  20053867.057    20053868.492   -29054611.71149 -22565886.19048
 09  1  1  1 31 30.0000000  0  9G25G19G28G 7G32G 8G17G27G11
  24002902.876    24002906.889    -4592116.42549  -3538803.37645
  22852040.012    22852040.739   -12177937.72449  -9457861.26546
  21865736.496    21865738.382   -21173571.70349 -16442541.10547
  22584868.241    22584870.046   -14804831.07949 -11510908.50146
  23896050.488    23896055.577    -8121931.28349  -6283950.84745
  20981839.445    20981842.745   -22983252.58349 -17871595.17747
  23367675.335    23367677.346   -11598070.85649  -9008528.40046
  21786912.005    21786914.928   -21982851.48249 -17092592.95047
  20054998.713    20054999.947   -29048666.25049 -22561253.37248
 09  1  1  1 32  0.0000000  0 10G25G19G28G 7G32G 8G17G27G20G11
  24022586.230    24022588.286    -4488685.39449  -3458207.81445
  22866875.871    22866876.880   -12099973.36549  -9397109.83546
  21852213.877    21852215.751   -21244633.96649 -16497914.30147
  22603773.393    22603774.864   -14705482.18649 -11433493.80446
  23882035.191    23882038.617    -8195587.32849  -6341345.12445
  20988522.568    20988525.764   -22948133.16949 -17844229.41147
  23353481.451    23353482.967   -11672659.38849  -9066649.33246
  21791028.155    21791031.131   -21961221.97749 -17075738.81047
                                   -393646.88049   -280578.58243
  20056234.248    20056235.362   -29042173.57249 -22556194.14248
 09  1  1  1 32 30.0000000  0 10G25G19G28G 7G32G 8G17G27G20G11
  24042277.498    24042279.329    -4385207.15749  -3377575.44945
  22881725.011    22881726.057   -12021940.79349  -9336305.25746
  21838725.825    21838727.216   -21315515.18349 -16553146.42247
  22622726.662    22622727.963   -14605886.25549 -11355886.61146
  23868053.830    23868057.956    -8269058.71249  -6398595.54145
  20995326.118    20995329.163   -22912380.39149 -17816370.12147
  23339313.470    23339314.799   -11747114.09349  -9124665.97946
  21795244.406    21795247.273   -21939066.19649 -17058474.57647
                                   -488607.73749   -354573.61543
  20057573.901    20057574.843   -29035133.74849 -22550708.56948
 09  1  1  1 33  0.0000000  0 10G25G19G28G 7G32G 8G17G27G20G11
  24061975.991    24061979.471    -4281684.76049  -3296908.67845
  22896587.163    22896587.647   -11943841.39149  -9275448.62146
  21825272.308    21825273.611   -21386213.86849 -16608236.30547
  22641724.600    22641726.748   -14506046.97349 -11278089.80246
  23854108.504    23854112.743    -8342342.82149  -6455700.02345
  21002249.705    21002253.010   -22875996.36249 -17788018.94347
  23325170.281    23325172.052   -11821435.28749  -9182578.58746
  21799560.278    21799563.532   -21916385.54149 -17040801.35647
                                   -583575.42649   -428574.33743
  20059017.041    20059018.498   -29027548.24449 -22544797.79348
 09  1  1  1 33 30.0000000  0 10G25G19G28G 7G32G 8G17G27G20G11
  24081684.647    24081688.355    -4178120.32849  -3216209.16645
  22911461.845    22911462.724   -11865675.16849  -9214539.91046
  21811853.808    21811855.450   -21456727.53849 -16663182.02747
  22660769.336    22660771.344   -14405966.91549 -11200105.37446
  23840198.164    23840202.754    -8415436.06349  -6512655.81245
  21009293.719    21009296.348   -22838982.06849 -17759176.64847
  23311052.784    23311055.351   -11895622.48849  -9240386.78046
  21803976.191    21803979.228   -21893180.40049 -17022719.43747
                  24390955.453     -678546.52949   -502577.79944
  20060564.450    20060565.717   -29019417.26849 -22538461.96648
 09  1  1  1 34  0.0000000  0 10G25G19G28G 7G32G 8G17G27G20G11
  24101399.388    24101402.266    -4074516.45649  -3135478.90845
  22926349.089    22926350.163   -11787442.93549  -9153579.75546
  21798471.162    21798472.576   -21527054.08549 -16717981.93847
  22679858.920    22679861.493   -14305648.64249 -11121935.32846
  23826326.587    23826331.825    -8488335.28249  -6569460.40845
  21016456.600    21016459.872   -22801338.79949 -17729844.24347
  23296962.119    23296963.907   -11969675.51049  -9298090.42246
  21808491.486    21808494.242   -21869451.72849 -17004229.57747
  24372877.738    24372882.916     -773518.08349   -576581.61345
  20062215.527    20062216.547   -29010741.44249 -22531701.58248
 09  1  1  1 34 30.0000000  0 10G25G19G28G 7G32G 8G17G27G20G11
  24121121.325    24121124.635    -3970877.89249  -3054721.64145
  22941248.024    22941249.264   -11709147.62449  -9092570.44546
  21785123.683    21785125.772   -21597193.65449 -16772636.15147
  22698994.403    22698995.433   -14205097.44349 -11043583.77546
  23812491.645    23812496.377    -8561039.48549  -6626113.03045
  21023739.008    21023741.974   -22763070.13549 -17700024.51947
  23282894.897    23282896.835   -12043595.68949  -9355690.54846
  21813106.011    21813109.128   -21845202.40449 -16985334.01647
  24354806.458    24354809.269     -868489.05649   -650585.00845
  20063969.433    20063970.651   -29001523.89449 -22524519.07948
 09  1  1  1 35  0.0000000  0 10G25G19G28G 7G32G 8G17G27G20G11
  24140849.198    24140852.421    -3867204.60349  -2973937.29545
  22956159.342    22956160.418   -11630787.38849  -9031510.53646
  21771813.437    21771814.695   -21667141.77649 -16827141.19247
  22718171.977    22718173.815   -14104313.67149 -10965050.99346
  23798695.166    23798698.735    -8633543.11249  -6682609.37345
  21031140.674    21031143.540   -22724175.09449 -17669716.70847
  23268853.878    23268856.051   -12117380.36349  -9413185.08746
  21817819.648    21817822.896   -21820430.84249 -16966031.51247
  24336734.489    24336738.103     -963454.03749   -724583.71945
  20065827.007    20065828.130   -28991763.21649 -22516913.36348
 09  1  1  1 35 30.0000000  0 10G25G19G28G 7G32G 8G17G27G20G11
  24160583.666    24160587.076    -3763500.08649  -2893128.59745
  22971082.800    22971083.689   -11552363.72349  -8970401.21846
  21758539.227    21758541.192   -21736897.06949 -16881495.96247
  22737394.519    22737396.846   -14003300.99549 -10886339.84946
  23784937.241    23784939.648    -8705843.81749  -6738947.61745
  21038660.908    21038663.768   -22684656.07749 -17638922.68847
  23254838.580    23254840.801   -12191030.38549  -9470574.68746
  21822632.966    21822635.853   -21795138.86149 -16946323.49247
  24318665.758    24318668.141    -1058410.72049   -798575.93445
  20067787.590    20067788.564   -28981460.83849 -22508885.53748
 09  1  1  1 36  0.0000000  0 10G25G19G28G 7G32G 8G17G27G20G11
  24180324.070    24180326.975    -3659766.94449  -2812297.62245
  22986018.131    22986019.000   -11473877.51649  -8909243.16946
  21745302.340    21745303.982   -21806457.66149 -16935699.02247
  22756659.872    22756661.776   -13902062.58149 -10807452.80146
  23771216.819    23771221.491    -8777938.45549  -6795125.29545
  21046299.620    21046302.569   -22644514.87349 -17607643.84547
  23240849.095    23240851.181   -12264545.37849  -9527859.08146
  21827544.316    21827547.430   -21769327.51249 -16926210.77047
  24300597.866    24300601.638    -1153356.18449   -872559.36945
  20069850.582    20069852.014   -28970617.94349 -22500436.53348
 09  1  1  1 36 30.0000000  0 10G25G19G28G 7G32G 8G17G27G20G11
  24200067.832    24200072.060    -3556007.97749  -2731446.50245
  23000965.903    23000966.162   -11395329.43749  -8848036.92346
  21732102.449    21732104.551   -21875821.80049 -16989749.00147
  22775966.447    22775968.450   -13800601.49849 -10728392.24546
  23757538.189    23757542.432    -8849824.17549  -6851140.17745
  21054056.240    21054059.229   -22603753.04849 -17575881.40247
  23226885.302    23226887.030   -12337925.40049  -9585038.28846
  21832554.747    21832557.887   -21742997.94649 -16905694.23547
  24282532.822    24282536.874    -1248287.55249   -946531.85545
  20072016.672    20072017.888   -28959235.40049 -22491567.02448
 09  1  1  1 37  0.0000000  0 10G25G19G28G 7G32G 8G17G27G20G11
  24219818.519    24219821.242    -3452225.74349  -2650577.29945
  23015924.527    23015925.531   -11316720.37749  -8786783.13246
  21718941.020    21718942.623   -21944987.30249 -17043644.19947
  22795316.221    22795317.559   -13698920.48649 -10649160.32146
  23743899.281    23743903.125    -8921497.97949  -6906989.92445
  21061930.919    21061933.992   -22562371.79849 -17543636.28647
  23212947.201    23212949.310   -12411170.06549  -9642112.02046
  21837663.510    21837666.778   -21716151.17549 -16884774.68747
  24264471.916    24264474.238    -1343201.63349  -1020490.87745
  20074285.441    20074286.466   -28947314.10849 -22482277.71348
 09  1  1  1 37 30.0000000  0 10G25G19G28G 7G32G 8G17G27G20G11
  24239570.345    24239572.807    -3348423.61849  -2569692.58745
  23030894.364    23030895.002   -11238051.76349  -8725482.95346
  21705817.275    21705818.707   -22013953.07649 -17097383.75847
  22814706.377    22814708.130   -13597023.51249 -10569760.10446
  23730301.534    23730305.329    -8992957.55949  -6962672.72945
  21069922.696    21069925.959   -22520374.02249 -17510910.76247
  23199035.152    23199036.934   -12484280.26949  -9699080.99346
  21842870.336    21842873.320   -21688789.03849 -16863453.55647
  24246413.917    24246416.087    -1438096.40149  -1094434.81745
  20076656.050    20076657.311   -28934856.01649 -22472570.10448
 09  1  1  1 38  0.0000000  0 10G25G19G28G 7G32G 8G17G27G20G11
  24259327.627    24259328.228    -3244604.25849  -2488794.44845
  23045875.622    23045877.554   -11159324.18849  -8664136.81046
  21692732.144    21692733.516   -22082717.24549 -17150966.22547
  22834136.856    22834138.943   -13494913.61049 -10490193.98046
  23716743.840    23716747.752    -9064199.75249  -7018186.16445
  21078031.273    21078034.831   -22477761.40849 -17477706.14347
  23185147.716    23185150.339   -12557255.57149  -9755944.83446
  21848175.343    21848178.510   -21660912.58749 -16841731.66147
  24228360.205    24228362.331    -1532968.99149  -1168361.48945
  20079128.918    20079129.867   -28921861.99049 -22462444.88548
 09  1  1  1 38 30.0000000  0 10G25G19G28G 7G32G 8G17G27G20G11
  24279085.869    24279087.192    -3140769.46249  -2407884.26445
  23060868.393    23060870.022   -11080537.80149  -8602744.84446
  21679685.776    21679687.269   -22151276.87849 -17204389.32047
  22853607.807    22853609.921   -13392592.72449 -10410463.45046
  23703228.297    23703233.142    -9135220.83549  -7073527.29145
  21086257.158    21086260.536   -22434534.76049 -17444023.05547
  23171287.561    23171289.399   -12630094.72349  -9812702.58446
  21853577.483    21853580.582   -21632522.25649 -16819609.33947
  24210310.331    24210313.508    -1627815.31449  -1242267.68445
  20081703.416    20081704.669   -28908332.39849 -22451902.34848
 09  1  1  1 39  0.0000000  0 10G25G19G28G 7G32G 8G17G27G20G11
  24298848.517    24298850.276    -3036922.81549  -2326964.83245
  23075871.776    23075873.519   -11001694.18949  -8541308.30346
  21666678.081    21666679.756   -22219630.75749 -17257652.07647
  22873118.869    22873121.104   -13290064.83449 -10330571.61646
  23689756.613    23689760.409    -9206018.53949  -7128694.34445
  21094599.513    21094602.529   -22390696.90949 -17409863.70547
  23157452.409    23157453.909   -12702798.86449  -9869355.14946
  21859077.326    21859080.649   -21603620.11949 -16797088.21047
  24192268.851    24192271.326    -1722633.38849  -1316151.87045
  20084379.573    20084380.692   -28894268.98849 -22440943.84948
 09  1  1  1 39 30.0000000  0 10G25G19G28G 7G32G 8G17G27G20G11
  24318609.517    24318613.669    -2933066.44049  -2246037.83345
  23090885.772    23090887.136   -10922793.67749  -8479827.41446
  21653710.498    21653712.172   -22287776.50349 -17310752.65647
  22892668.246    22892670.424   -13187332.98149 -10250520.85746
  23676327.440    23676331.440    -9276589.56149  -7183684.77845
  21103057.617    21103060.993   -22346249.44549 -17375229.34047
  23143642.170    23143644.985   -12775367.23149  -9925901.90046
  21864674.781    21864678.083   -21574206.94749 -16774168.86847
  24174230.878    24174232.964    -1817419.67549  -1390011.30545
  20087157.001    20087158.276   -28879672.71749 -22429570.13748
 09  1  1  1 40  0.0000000  0 10G25G19G28G 7G32G 8G17G27G20G11
  24338373.665    24338378.090    -2829202.65149  -2165105.04945
  23105911.400    23105911.467   -10843836.73349  -8418302.55646
  21640782.998    21640784.241   -22355711.98149 -17363689.39547
  22912255.905    22912257.717   -13084399.49349 -10170312.97546
  23662942.456    23662946.761    -9346930.59949  -7238495.97045
  21111631.472    21111634.477   -22301193.91949 -17340121.14947
  23129859.691    23129861.946   -12847799.36449  -9982342.50546
  21870368.739    21870371.935   -21544283.69249 -16750852.06347
  24156199.351    24156203.385    -1912170.98049  -1463843.46445
  20090036.027    20090037.200   -28864544.25749 -22417781.73348
 09  1  1  1 40 30.0000000  0 10G25G19G28G 7G32G 8G17G27G20G11
  24358139.401    24358142.781    -2725335.16349  -2084169.42045
  23120947.101    23120947.866   -10764824.93149  -8356734.95646
  21627895.789    21627897.002   -22423435.77449 -17416461.18647
  22931881.129    22931883.509   -12981268.48849 -10089951.19046
  23649601.032    23649604.405    -9417039.56649  -7293126.30945
  21120320.506    21120323.403   -22255533.00949 -17304541.23147
  23116102.096    23116103.730   -12920095.85349 -10038677.40346
  21876159.650    21876163.001   -21513852.54549 -16727139.49447
  24138176.638    24138180.820    -2006885.13649  -1537646.68345
  20093015.695    20093016.900   -28848885.65449 -22405580.23748
 09  1  1  1 41  0.0000000  0 10G25G19G28G 7G32G 8G17G27G20G11
  24377905.917    24377909.195    -2621465.88949  -2003232.39045
  23135992.875    23135993.986   -10685758.26749  -8295124.60446
  21615048.723    21615050.232   -22490945.61049 -17469066.24747
  22951543.707    22951545.595   -12877942.42849 -10009437.40746
  23636304.337    23636308.580    -9486912.74849  -7347572.92345
  21129124.152    21129127.613   -22209267.79649 -17268490.43347
  23102370.552    23102372.331   -12992256.21449 -10094906.24246
  21882046.824    21882050.298   -21482914.26749 -16703031.75947
  24120160.580    24120164.089    -2101558.61049  -1611418.23745
  20096096.212    20096097.407   -28832697.37149 -22392966.00448
 09  1  1  1 41 30.0000000  0 10G25G19G28G 7G32G 8G17G27G20G11
  24397671.144    24397673.989    -2517597.54349  -1922296.08945
  23151048.722    23151050.716   -10606637.71849  -8233472.25646
  21602242.878    21602244.683   -22558239.68749 -17521503.19347
  22971242.170    22971243.952   -12774424.14949  -9928773.85546
  23623052.851    23623057.166    -9556547.32649  -7401833.59245
  21138042.498    21138045.899   -22162400.40349 -17231970.40347
  23088664.670    23088666.867   -13064280.30149 -10151028.88146
  21888030.922    21888033.878   -21451470.08649 -16678529.81547
  24102153.606    24102157.218    -2196188.38349  -1685155.70845
  20099277.130    20099278.452   -28815980.78649 -22379940.10548
 09  1  1  1 42  0.0000000  0 10G25G19G28G 7G32G 8G17G27G20G11
  24417435.891    24417440.115    -2413734.29549  -1841363.74045
  23166114.253    23166116.392   -10527465.53749  -8171779.69146
  21589478.255    21589480.425   -22625317.25849 -17573771.43347
  22990977.118    22990978.896   -12670718.51549  -9847964.29946
  23609847.473    23609852.821    -9625941.99249  -7455907.32445
  21147075.125    21147078.468   -22114934.40749 -17194983.93047
  23074984.541    23074986.967   -13136169.56249 -10207046.47546
  21894110.383    21894113.362   -21419522.83249 -16653635.87247
  24084153.647    24084158.282    -2290773.04849  -1758858.03645
  20102558.328    20102559.543   -28798738.70449 -22366504.71848
 09  1  1  1 42 30.0000000  0 10G25G19G28G 7G32G 8G17G27G20G11
  24437199.559    24437201.505    -2309876.59249  -1760435.70145
  23181190.905    23181192.493   -10448239.95049  -8110045.50346
  21576755.783    21576757.905   -22692174.07449 -17625867.66347
  23010747.351    23010748.580   -12566826.16549  -9767009.25946
  23596688.293    23596693.895    -9695091.21849  -7509789.77845
  21156221.792    21156225.125   -22066869.31949 -17157530.64147
  23061330.433    23061332.567   -13207921.32949 -10262956.91946
  21900285.328    21900288.585   -21387071.48749 -16628349.12447
  24066165.710    24066168.372    -2385307.55349  -1832521.27845
  20105939.538    20105940.964   -28780969.76849 -22352658.79748
 09  1  1  1 43  0.0000000  0 10G25G19G28G 7G32G 8G17G27G20G11
  24456962.028    24456965.277    -2206027.24349  -1679514.21345
  23196277.301    23196278.170   -10368962.19149  -8048270.65746
  21564076.181    21564077.934   -22758808.56849 -17677790.64347
  23030551.611    23030554.040   -12462750.50549  -9685911.37146
  23583577.859    23583581.834    -9763992.75749  -7563479.23645
  21165481.992    21165485.035   -22018207.85949 -17119612.63347
  23047702.617    23047705.479   -13279535.80049 -10318760.39146
  21906556.117    21906559.347   -21354117.91649 -16602671.03347
  24048185.897    24048189.794    -2479789.01749  -1906143.20145
  20109420.788    20109422.079   -28762675.96549 -22338403.89648
 09  1  1  1 43 30.0000000  0 10G25G19G28G 7G32G 8G17G27G20G11
  24476720.989    24476723.428    -2102189.50049  -1598601.72145
  23211373.800    23211374.069   -10289633.28149  -7986455.96746
  21551438.729    21551440.123   -22825219.27149 -17729539.24347
  23050391.576    23050393.574   -12358495.15649  -9604673.46946
  23570513.323    23570517.548    -9832643.80449  -7616973.51445
  21174854.913    21174858.220   -21968952.24749 -17081231.65247
  23034100.554    23034102.692   -13351013.49449 -10374457.29046
  21912922.090    21912925.364   -21320663.96949 -16576603.03747
  24030217.507    24030220.841    -2574214.65349  -1979721.63945
  20113001.629    20113003.183   -28743858.67549 -22323741.07948
 09  1  1  1 44  0.0000000  0 10G25G19G28G 7G32G 8G17G27G20G11
  24496478.331    24496481.637    -1998365.67149  -1517700.12045
  23226478.543    23226479.315   -10210254.03949  -7924602.04946
  21538844.029    21538845.601   -22891403.88349 -17781111.66847
  23070264.818    23070266.530   -12254062.76349  -9523297.61046
  23557497.714    23557502.825    -9901041.45349  -7670270.32545
  21184340.406    21184344.021   -21919104.79149 -17042389.49447
  23020525.562    23020527.291   -13422354.14349 -10430047.39946
  21919383.217    21919386.413   -21286710.84449 -16550146.07447
  24012258.679    24012264.147    -2668581.30449  -2053254.08445
  20116681.881    20116683.256   -28724519.15049 -22308671.32148
 09  1  1  1 44 30.0000000  0 10G25G19G28G 7G32G 8G17G27G20G11
  24516231.806    24516234.991    -1894558.51349  -1436811.48345
  23241592.610    23241593.539   -10130825.11649  -7862709.42846
  21526292.708    21526294.415   -22957360.49649 -17832506.43047
  23090170.258    23090172.218   -12149456.80349  -9441786.49646
  23544531.420    23544535.276    -9969182.88649  -7723367.49345
  21193938.502    21193941.678   -21868667.38449 -17003087.63647
  23006976.352    23006977.170   -13493557.84449 -10485530.80446
  21925939.438    21925942.708   -21252260.20149 -16523301.43947
  23994314.302    23994317.355    -2762886.38949  -2126738.56245
  20120461.095    20120462.566   -28704658.63749 -22293195.59748
 09  1  1  1 45  0.0000000  0 10G25G19G28G 7G32G 8G17G27G20G11
  24535982.043    24535985.169    -1790770.59049  -1355937.84345
  23256717.440    23256719.417   -10051347.01049  -7800778.48446
  21513785.576    21513787.027   -23023086.57549 -17883721.55347
  23110108.345    23110110.630   -12044679.94449  -9360142.24446
  23531612.194    23531618.185   -10037064.85849  -7776262.48345
  21203648.000    21203651.390   -21817641.86249 -16963327.50947
  22993451.964    22993453.476   -13564624.03849 -10540907.04746
  21932589.584    21932592.047   -21217313.18749 -16496070.01447
  23976380.927    23976384.113    -2857126.22949  -2200172.21445
  20124339.450    20124340.709   -28684278.50649 -22277314.97248
 09  1  1  1 45 30.0000000  0 10G25G19G28G 7G32G 8G17G27G20G11
  24555728.713    24555731.300    -1687004.49149  -1275081.20645
  23271850.753    23271851.767    -9971820.35749  -7738809.69946
  21501322.544    21501323.785   -23088580.85149 -17934756.05247
  23130077.850    23130080.503   -11939735.27649  -9278367.19846
  23518745.611    23518750.420   -10104684.54949  -7828953.09645
  21213469.531    21213472.573   -21766030.47549 -16923110.86047
  22979955.008    22979956.712   -13635552.56849 -10596176.02046
  21939333.475    21939336.892   -21181871.44649 -16468453.08847
  23958459.604    23958464.406    -2951298.54849  -2273553.23345
  20128316.317    20128317.649   -28663380.02849 -22261030.43948
 09  1  1  1 46  0.0000000  0 10G25G19G28G 7G32G 8G17G27G20G11
  24575470.766    24575474.120    -1583262.80549  -1194243.59445
  23286993.390    23286994.448    -9892245.95649  -7676803.72646
  21488903.911    21488905.316   -23153840.86749 -17985608.01947
  23150080.243    23150082.247   -11834625.80949  -9196463.74946
  23505928.554    23505932.784   -10172039.14549  -7881437.13045
  21223402.194    21223405.071   -21713835.59149 -16882439.54647
  22966483.654    22966485.048   -13706343.39849 -10651337.70046
  21946171.801    21946174.694   -21145936.44649 -16440451.81347
  23940553.450    23940557.057    -3045399.86749  -2346878.93145
  20132391.515    20132392.841   -28641964.42149 -22244342.95548
 09  1  1  1 46 30.0000000  0 10G25G19G28G 7G32G 8G17G27G20G11
  24595205.803    24595210.663    -1479548.07149  -1113426.98545
  23302145.081    23302145.956    -9812624.15449  -7614760.80846
  21476530.277    21476532.032   -23218864.60949 -18036275.87647
  23170112.075    23170114.264   -11729354.64049  -9114434.29546
  23493162.402    23493166.395   -10239125.47849  -7933712.14745
  21233444.942    21233448.279   -21661059.23149 -16841315.12847
  22953038.562    22953041.087   -13776996.19649 -10706391.82846
  21953103.872    21953106.635   -21109509.55049 -16412067.23747
  23922660.457    23922663.974    -3139426.93949  -2420146.77945
  20136564.926    20136566.277   -28620033.17649 -22227253.67248
 09  1  1  1 47  0.0000000  0 10G25G19G28G 7G32G 8G17G27G20G11
  24614938.293    24614938.888    -1375863.53849  -1032633.88445
  23317305.405    23317306.271    -9732956.40949  -7552682.08946
  21464202.032    21464203.581   -23283650.67749 -18086758.53147
  23190174.936    23190177.155   -11623925.46649  -9032281.74346
  23480448.264    23480452.050   -10305941.33049  -7985776.39245
  21243597.923    21243601.219   -21607704.21849 -16799739.80947
  22939619.792    22939621.727   -13847511.88249 -10761339.10546
  21960128.939    21960131.645   -21072593.01849 -16383301.12547
  23904782.304    23904785.505    -3233377.51449  -2493355.00145
  20140836.099    20140837.271   -28597588.06249 -22209763.97548
 09  1  1  1 47 30.0000000  0 10G25G19G28G 7G32G 8G17G27G20G11
  24634662.568    24634664.466    -1272211.31149   -951865.97545
  23332474.334    23332475.690    -9653243.00549  -7490567.78346
  21451919.205    21451920.931   -23348196.64749 -18137054.08947
  23210267.836    23210268.988   -11518340.79449  -8950008.01346
  23467785.690    23467790.304   -10372483.40849  -8037627.30145
  21253861.078    21253863.902   -21553772.25349 -16757714.91847
  22926227.913    22926229.226   -13917889.54749 -10816178.84546
  21967246.672    21967249.877   -21035187.81749 -16354154.23547
  23886920.849    23886922.661    -3327248.08849  -2566500.88345
  20145204.795    20145206.050   -28574629.98349 -22191874.56848
 09  1  1  1 48  0.0000000  0 10G25G19G28G 7G32G 8G17G27G20G11
  24654380.128    24654381.993    -1168594.47949   -871125.65445
  23347651.087    23347653.260    -9573484.96449  -7428418.70746
  21439682.697    21439684.103   -23412500.82349 -18187161.23347
  23230388.617    23230390.039   -11412604.35549  -8867616.02446
  23455174.950    23455179.174   -10438749.18349  -8089262.90745
  21264233.268    21264236.661   -21499266.21249 -16715242.69447
  22912861.726    22912863.551   -13988129.47049 -10870911.25346
  21974457.460    21974460.409   -20997296.08049 -16324628.22647
  23869072.195    23869076.242    -3421036.02349  -2639582.36145
  20149670.893    20149672.233   -28551161.00249 -22173587.05548
 09  1  1  1 48 30.0000000  0 10G25G19G28G 7G32G 8G17G27G20G11
  24674091.842    24674093.944    -1065014.89149   -790414.33545
  23362837.974    23362839.376    -9493682.11849  -7366234.71546
  21427492.266    21427494.037   -23476560.56549 -18237077.92047
  23250537.997    23250540.817   -11306718.20549  -8785107.38146
  23442619.492    23442621.619   -10504735.12549  -8140680.47245
  21274714.192    21274717.566   -21444187.67149 -16672324.36747
  22899522.281    22899524.063   -14058230.87949 -10925535.71746
  21981760.464    21981763.603   -20958918.85349 -16294723.90947
  23851241.109    23851244.587    -3514737.24649  -2712596.26045
  20154233.974    20154235.339   -28527181.71449 -22154901.89648
 09  1  1  1 49  0.0000000  0 10G25G19G28G 7G32G 8G17G27G20G11
  24693792.823    24693796.121     -961474.99149   -709733.97245
  23378032.355    23378033.532    -9413835.12849  -7304016.32946
  21415349.022    21415350.543   -23540373.79949 -18286802.52847
  23270715.079    23270717.595   -11200685.27949  -8702484.36946
  23430115.778    23430119.547   -10570438.12649  -8191877.56045
  21285303.881    21285307.152   -21388538.98349 -16628961.76447
  22886208.498    22886210.308   -14128193.36749 -10980051.93446
  21989155.924    21989158.769   -20920057.60449 -16264442.43347
  23833427.172    23833431.264    -3608349.22649  -2785540.62245
  20158893.858    20158895.181   -28502693.60549 -22135820.25448
 09  1  1  1 49 30.0000000  0 10G25G19G28G 7G32G 8G17G27G20G11
  24713487.119    24713491.310     -857979.82349   -629088.42545
  23393234.291    23393235.077    -9333946.92749  -7241765.83346
  21403252.487    21403254.742   -23603940.68949 -18336335.18447
  23290918.782    23290921.490   -11094511.05749  -8619751.25746
  23417666.357    23417670.450   -10635857.82949  -8242853.87945
  21296001.135    21296004.294   -21332324.84249 -16585158.55447
  22872921.156    22872923.399   -14198019.51149 -11034461.92046
  21996641.802    21996645.438   -20880716.23849 -16233786.84247
  23815631.401    23815634.440    -3701870.97849  -2858414.68345
  20163649.916    20163651.307   -28477700.23449 -22116344.89148
 09  1  1  1 50  0.0000000  0 10G25G19G28G 7G32G 8G17G27G20G11
  24733173.440    24733177.830     -754528.97849   -548477.48645
  23408445.071    23408445.760    -9254015.26549  -7179481.46546
  21391204.038    21391205.935   -23667256.15649 -18385671.91847
  23311149.827    23311153.017   -10988195.67249  -8536908.13746
  23405272.877    23405277.259   -10700988.49349  -8293604.99945
  21306806.105    21306809.367   -21275544.34449 -16540914.02347
  22859660.257    22859662.180   -14267706.07149 -11088763.13046
  22004219.596    22004223.192   -20840893.29549 -16202755.99147
  23797852.480    23797855.855    -3795296.47549  -2931213.72145
  20168502.386    20168503.693   -28452200.48349 -22096474.95448
 09  1  1  1 50 30.0000000  0 10G25G19G28G 7G32G 8G17G27G20G11
  24752850.108    24752854.076     -651125.49649   -467903.43445
  23423663.016    23423664.865    -9174041.37049  -7117164.19146
  21379203.675    21379205.677   -23730318.69849 -18434811.56547
  23331407.613    23331411.009   -10881742.66849  -8453957.78546
  23392934.079    23392938.272   -10765827.64349  -8344128.96545
  21317718.431    21317721.310   -21218200.56149 -16496230.57747
  22846425.469    22846427.542   -14337253.23549 -11142955.73346
  22011888.886    22011892.778   -20800591.03349 -16171351.64947
  23780093.044    23780096.208    -3888623.16249  -3003935.76445
  20173451.060    20173452.268   -28426195.82049 -22076211.58548
 09  1  1  1 51  0.0000000  0 10G25G19G28G 7G32G 8G17G27G20G11
  24772517.003    24772521.609     -547771.64849   -387368.00945
  23438890.314    23438891.537    -9094025.47749  -7054814.18046
  21367251.849    21367253.485   -23793126.53749 -18483752.74147
  23351691.031    23351694.137   -10775154.82849  -8370902.37446
  23380651.372    23380655.422   -10830372.23949  -8394423.41545
  21328737.362    21328740.353   -21160295.96549 -16451110.12447
  22833217.632    22833219.845   -14406660.91549 -11197039.62646
  22019649.524    22019652.580   -20759810.96649 -16139574.99247
  23762351.596    23762357.330    -3981847.75449  -3076578.26545
  20178495.308    20178496.523   -28399687.68249 -22055555.89648
 09  1  1  1 51 30.0000000  0 10G25G19G28G 7G32G 8G17G27G20G11
  24792175.144    24792178.609     -444470.77449   -306873.91045
  23454124.388    23454125.610    -9013968.77649  -6992432.37646
  21355348.740    21355350.527   -23855677.58449 -18532493.81747
  23371998.402    23372002.039   -10668435.94749  -8287744.84846
  23368424.876    23368429.603   -10894620.04049  -8444486.58545
  21339862.631    21339865.738   -21101833.21749 -16405554.75447
  22820036.777    22820038.412   -14475929.52949 -11251015.16846
  22027500.129    22027503.312   -20718555.41949 -16107427.83147
  23744631.314    23744636.903    -4074967.72549  -3149139.24845
  20183635.100    20183636.088   -28372678.53949 -22034509.82148
 09  1  1  1 52  0.0000000  0 10G25G19G28G 7G32G 8G17G27G20G11
  24811820.934    24811825.140     -341225.09449   -226422.82645
  23469365.986    23469367.280    -8933871.90049  -6930019.26046
  21343494.916    21343497.200   -23917969.73949 -18581033.15647
  23392331.196    23392334.073   -10561588.92049  -8204487.47346
  23356257.230    23356260.674   -10958568.05749  -8494316.19445
  21351093.186    21351096.512   -21042814.63549 -16359566.26147
  22806881.285    22806883.398   -14545058.79249 -11304882.11046
  22035441.182    22035443.867   -20676826.09949 -16074911.49247
  23726932.466    23726936.583    -4167979.38649  -3221615.84945
  20188869.656    20188870.937   -28345169.69049 -22013074.35148
 09  1  1  1 52 30.0000000  0 10G25G19G28G 7G32G 8G17G27G20G11
  24831456.740    24831462.330     -238037.44849   -146016.93145
  23484615.619    23484616.965    -8853735.60049  -6867575.43546
  21331690.558    21331692.658   -23980001.17049 -18629369.34147
  23412687.704    23412690.205   -10454616.58849  -8121132.46146
  23344144.865    23344149.382   -11022213.52649  -8543910.04245
  21362429.058    21362432.381   -20983242.88349 -16313146.73047
  22793753.283    22793755.377   -14614048.57249 -11358640.37146
  22043471.182    22043474.567   -20634625.09049 -16042027.60647
  23709254.874    23709258.308    -4260880.59749  -3294006.34845
  20194199.187    20194200.622   -28317162.44349 -21991250.51948
 09  1  1  1 53  0.0000000  0 10G25G19G28G 7G32G 8G17G27G20G11
  24851081.664    24851087.157     -134910.92549    -65658.71445
  23499872.747    23499873.477    -8773560.50249  -6805101.37646
  21319936.355    21319938.063   -24041770.44549 -18677501.25347
  23433066.995    23433069.315   -10347522.96749  -8037682.93346
  23332091.379    23332096.155   -11085554.43749  -8593266.57345
  21373870.457    21373873.269   -20923121.19749 -16266298.68647
  22780651.603    22780653.620   -14682899.42349 -11412290.37446
  22051590.941    22051595.008   -20591954.67349 -16008777.94747
  23691598.478    23691600.988    -4353668.67249  -3366308.69745
  20199623.422    20199624.529   -28288659.11549 -21969040.13548
 09  1  1  1 53 30.0000000  0 10G25G19G28G 7G32G 8G17G27G20G11
  24870693.697    24870699.607      -31846.59649     14651.06345
  23515136.740    23515138.035    -8693346.07149  -6742596.66046
  21308232.967    21308234.573   -24103274.06449 -18725426.14947
  23453468.741    23453471.379   -10240309.45549  -7954139.98646
  23320097.582    23320101.117   -11148586.31149  -8642382.30945
  21385415.285    21385418.354   -20862450.53349 -16219022.86547
  22767576.125    22767578.719   -14751609.67449 -11465830.81846
  22059800.248    22059803.706   -20548814.93349 -15975162.57647
  23673962.557    23673965.950    -4446338.81949  -3438519.15545
  20205141.671    20205143.023   -28259659.77449 -21946443.25248
 09  1  1  1 54  0.0000000  0 10G25G19G28G 7G32G 8G17G27G20G11
  24890295.027    24890298.402       71151.04949     94908.87045
  23530408.347    23530409.125    -8613094.77449  -6680063.21046
  21296579.495    21296581.358   -24164511.73849 -18773143.81547
  23473893.122    23473895.257   -10132981.00249  -7870507.46846
  23308162.575    23308165.424   -11211308.30549  -8691256.58445
  21397063.871    21397067.404   -20801235.28549 -16171322.68647
  22754527.628    22754529.390   -14820181.35849 -11519263.28646
  22068098.293    22068101.521   -20505209.68449 -15941184.47447
  23656351.189    23656354.699    -4538890.06949  -3510636.95845
  20210753.726    20210754.860   -28230168.23549 -21923462.83648
 09  1  1  1 54 30.0000000  0 10G25G19G28G 7G32G 8G17G27G20G11
  24909881.818    24909885.151      174080.38749    175113.48145
  23545686.490    23545687.843    -8532806.41649  -6617500.88546
  21284977.647    21284979.229   -24225480.67549 -18820652.07947
  23494337.619    23494340.466   -10025539.75449  -7786787.08346
  23296285.757    23296290.249   -11273716.76249  -8739886.54345
  21408816.275    21408819.749   -20739477.38649 -16123199.66847
  22741505.453    22741507.369   -14888613.41249 -11572586.95346
  22076484.658    22076488.061   -20461139.85949 -15906844.37347
  23638761.886    23638766.340    -4631318.26449  -3582658.87445
  20216459.466    20216460.621   -28200184.62249 -21900098.98848
 09  1  1  1 55  0.0000000  0 10G25G19G28G 7G32G 8G17G27G20G11
  24929454.848    24929459.666      276939.98749    255263.76145
  23560972.848    23560973.394    -8452480.39749  -6554909.21646
  21273427.363    21273429.018   -24286177.66549 -18867948.43747
  23514803.910    23514806.851    -9917987.73549  -7702980.36546
  23284469.527    23284474.534   -11335807.86949  -8788269.23246
  21420671.568    21420674.680   -20677178.00049 -16074654.71547
  22728510.350    22728511.516   -14956904.49349 -11625800.77346
  22084959.311    22084961.841   -20416606.30949 -15872142.92747
  23621198.005    23621201.826    -4723619.25849  -3654581.67745
  20222258.592    20222260.001   -28169709.82549 -21876352.39448
 09  1  1  1 55 30.0000000  0 10G25G19G28G 7G32G 8G17G27G20G11
  24949014.806    24949018.193      379726.18549    335356.77545
  23576264.841    23576266.048    -8372118.73649  -6492289.77546
  21261929.033    21261930.406   -24346601.82149 -18915032.20147
  23535291.637    23535294.126    -9810329.04249  -7619090.52646
  23272714.905    23272719.966   -11397579.99849  -8836403.36946
  21432628.970    21432632.165   -20614340.99249 -16025690.83947
  22715541.118    22715543.429   -15025055.62349 -11678905.54646
  22093521.263    22093524.197   -20371612.14849 -15837082.55947
  23603658.707    23603662.006    -4815791.19849  -3726403.91745
  20228150.563    20228151.935   -28138746.81949 -21852225.38048
 09  1  1  1 56  0.0000000  0 10G25G19G28G 7G32G 8G17G27G20G11
  24968561.455    24968563.807      482436.67049    415390.86745
  23591563.430    23591565.507    -8291721.59749  -6429642.68746
  21250483.017    21250484.608   -24406750.53849 -18961901.33847
  23555797.261    23555800.022    -9702566.49849  -7535119.77246
  23261021.440    23261025.788   -11459030.17749  -8884286.64546
  21444688.301    21444691.641   -20550968.81149 -15976309.93447
  22702599.407    22702600.497   -15093066.49849 -11731901.01746
  22102170.636    22102174.051   -20326158.95049 -15801664.50247
  23586144.352    23586147.826    -4907831.03249  -3798123.21045
  20234135.350    20234136.658   -28107296.63249 -21827718.75148
 09  1  1  1 56 30.0000000  0 10G25G19G28G 7G32G 8G17G27G20G11
  24988089.875    24988095.358      585069.55449    495364.48145
  23606869.334    23606870.592    -8211288.76949  -6366967.79546
  21239089.974    21239091.773   -24466621.62649 -19008554.13847
  23576324.380    23576326.330    -9594702.84549  -7451070.22146
  23249390.332    23249394.684   -11520155.09049  -8931916.46646
  21456849.023    21456852.255   -20487063.77049 -15926513.81847
  22689683.629    22689685.883   -15160936.64549 -11784786.84846
  22110907.637    22110910.371   -20280248.12449 -15765889.85747
  23568654.880    23568658.951    -4999734.74849  -3869736.43045
  20240212.772    20240213.932   -28075360.62149 -21802833.56348
 09  1  1  1 57  0.0000000  0 10G25G19G28G 7G32G 8G17G27G20G11
  25007605.705    25007609.677      687620.33249    575274.10245
  23622181.264    23622182.975    -8130822.90649  -6304267.17345
  21227749.875    21227751.741   -24526214.90649 -19054990.45547
  23596867.389    23596871.004    -9486742.53349  -7366945.35846
  23237820.172    23237823.881   -11580953.97149  -8979292.22846
  21469110.144    21469113.810   -20422630.02349 -15876305.72347
  22676795.611    22676797.123   -15228667.67749 -11837564.26746
  22119730.649    22119733.026   -20233883.35949 -15729761.49147
  23551192.689    23551196.143    -5091501.26549  -3941242.75445
  20246381.602    20246383.105   -28042942.16449 -21777572.42248
 09  1  1  1 57 30.0000000  0 10G25G19G28G 7G32G 8G17G27G20G11
  25027103.757    25027108.668      790089.11949    655119.86345
  23637500.599    23637501.995    -8050321.76349  -6241539.05545
  21216463.588    21216465.225   -24585525.59149 -19101206.57547
  23617430.573    23617433.299    -9378686.35349  -7282745.79746
  23226314.257    23226318.337   -11641421.45249  -9026409.74846
  21481472.266    21481475.836   -20357667.79549 -15825685.81947
  22663933.166    22663935.400   -15296256.69949 -11890231.02246
  22128639.881    22128642.593   -20187064.09649 -15693278.96947
  23533757.689    23533761.296    -5183125.03149  -4012637.84245
  20252642.677    20252643.949   -28010040.62249 -21751934.85748
 09  1  1  1 58  0.0000000  0 10G25G19G28G 7G32G 8G17G27G20G11
  25046588.078    25046592.122      892472.64549    734899.17945
  23652826.169    23652827.128    -7969786.79849  -6178784.56945
  21205231.144    21205232.726   -24644552.37949 -19147201.47547
  23638010.246    23638012.919    -9270537.87249  -7198474.32246
  23214871.689    23214874.509   -11701555.51649  -9073267.45846
  21493934.099    21493937.491   -20292180.86549 -15774657.06447
  22651098.571    22651100.403   -15363704.64649 -11942787.86146
  22137635.364    22137637.563   -20139793.18749 -15656444.51847
  23516350.090    23516353.183    -5274603.55849  -4083919.76245
  20258995.010    20258996.528   -27976658.13249 -21725922.52948
 09  1  1  1 58 30.0000000  0 10G25G19G28G 7G32G 8G17G27G20G11
  25066053.302    25066058.041      994768.10049    814609.87745
  23668158.185    23668159.108    -7889218.91649  -6116004.45045
  21194052.843    21194054.569   -24703293.34849 -19192973.66447
  23658607.727    23658609.920    -9162300.59049  -7114133.63646
  23203491.297    23203496.018   -11761353.78749  -9119863.51446
  21506495.403    21506498.846   -20226172.08449 -15723221.66847
  22638290.238    22638292.548   -15431011.39649 -11995234.68646
  22146715.628    22146718.701   -20092072.89749 -15619259.89947
  23498969.382    23498972.839    -5365933.99049  -4155086.30045
  20265438.839    20265440.142   -27942796.81249 -21699537.08848
 09  1  1  1 59  0.0000000  0  9G19G28G 7G32G 8G17G27G20G11
  23683495.567    23683497.187    -7808617.72549  -6053198.36245
  21182929.763    21182931.295   -24761745.50149 -19238520.79447
  23679220.707    23679223.075    -9053976.50349  -7029725.29246
  23192177.400    23192180.940   -11820812.60949  -9166195.05946
  21519155.249    21519158.713   -20159643.17049 -15671380.96947
  22625509.006    22625511.108   -15498176.23349 -12047570.92146
  22155882.142    22155885.340   -20043904.28049 -15581725.91847
  23481618.684    23481622.201    -5457112.39249  -4226134.35945
  20271973.565    20271974.358   -27908457.63449 -21672779.29348
 09  1  1  1 59 30.0000000  0  9G19G28G 7G32G 8G17G27G20G11
  23698839.575    23698840.763    -7727984.33949  -5990367.19246
  21171861.905    21171863.738   -24819907.45249 -19283841.79847
  23699849.576    23699851.825    -8945569.19649  -6945252.11145
  23180926.878    23180930.612   -11879929.84149  -9212260.44645
  21531913.786    21531917.037   -20092597.54249 -15619137.65047
  22612755.145    22612757.201   -15565199.38849 -12099796.74846
  22165133.228    22165136.463   -19995289.98549 -15543844.67347
  23464297.395    23464300.383    -5548136.18049  -4297061.97345
  20278598.289    20278599.591   -27873642.52849 -21645650.65148
 09  1  1  2  0  0.0000000  0  9G19G28G 7G32G 8G17G27G20G11
  23714189.188    23714190.814    -7647319.83049  -5927511.77845
  21160849.749    21160851.322   -24877777.93549 -19328935.68147
  23720493.914    23720496.625    -8837082.63449  -6860717.16145
  23169742.941    23169746.398   -11938703.76549  -9258058.29745
  21544769.636    21544773.237   -20025038.97549 -15566494.62647
  22600028.116    22600029.603   -15632081.79549 -12151912.91746
  22174468.615    22174471.301   -19946232.77849 -15505618.29847
  23447006.235    23447009.124    -5639003.30249  -4367867.50745
  20285313.610    20285314.722   -27838354.38549 -21618153.40248
 09  1  1  2  0 30.0000000  0  9G19G28G 7G32G 8G17G27G20G11
  23729545.338    23729547.360    -7566623.78449  -5864631.79245
  21149893.354    21149895.088   -24935353.96749 -19373800.12547
  23741153.751    23741155.998    -8728518.75849  -6776121.98345
  23158624.778    23158629.404   -11997130.58449  -9303585.67246
  21557722.799    21557726.586   -19956968.94649 -15513453.06247
  22587327.439    22587329.676   -15698821.87749 -12203918.16946
  22183887.854    22183890.796   -19896733.77549 -15467047.66047
  23429746.104    23429748.827    -5729709.41049  -4438547.57045
  20292118.539    20292119.722   -27802593.76649 -21590287.99248
 09  1  1  2  1  0.0000000  0  9G19G28G 7G32G 8G17G27G20G11
  23744907.273    23744908.467    -7485897.02749  -5801727.87445
  21138993.559    21138994.963   -24992633.78249 -19418433.74247
  23761826.240    23761828.746    -8619880.56449  -6691468.89846
  23147573.229    23147577.056   -12055208.05349  -9348840.81746
  21570772.855    21570776.535   -19888390.82349 -15460015.58047
  22574654.432    22574656.102   -15765420.21249 -12255812.96246
  22193390.376    22193393.732   -19846795.40949 -15428134.66047
  23412516.072    23412519.284    -5820251.67949  -4509099.97445
  20299012.986    20299014.333   -27766362.94349 -21562056.18548
 09  1  1  2  1 30.0000000  0  9G19G28G 7G32G 8G17G27G20G11
  23760274.844    23760276.127    -7405140.16549  -5738800.49045
  21128150.396    21128151.796   -25049615.07249 -19462834.74747
  23782513.718    23782515.531    -8511171.13849  -6606760.33346
  23136588.443    23136591.426   -12112933.45049  -9393821.61246
  21583919.563    21583922.478   -19819307.21049 -15406184.21547
  22562008.137    22562010.073   -15831876.38549 -12307596.99547
  22202976.869    22202980.076   -19796419.51649 -15388880.73347
  23395317.399    23395320.902    -5910627.30249  -4579522.52745
  20305996.681    20305997.867   -27729663.54349 -21533459.24448
 09  1  1  2  2  0.0000000  0  9G19G28G 7G32G 8G17G27G20G11
  23775648.201    23775649.364    -7324353.46049  -5675849.84945
  21117364.133    21117365.983   -25106295.68149 -19507001.45047
  23803212.979    23803216.302    -8402393.57049  -6521998.65746
  23125671.261    23125674.558   -12170303.84549  -9438525.80245
  21597160.917    21597164.164   -19749720.69949 -15351960.98047
  22549389.333    22549390.789   -15898190.10349 -12359270.01747
  22212645.625    22212649.611   -19745608.22149 -15349287.52947
  23378152.272    23378155.618    -6000832.59049  -4649812.36245
  20313069.325    20313070.742   -27692497.06749 -21504498.35548
 09  1  1  2  2 30.0000000  0  9G19G28G 7G32G 8G17G27G20G11
  23791026.925    23791028.312    -7243538.50249  -5612877.21945
  21106635.400    21106637.227   -25162674.60949 -19550933.08647
  23823924.980    23823928.593    -8293551.52749  -6437186.71346
  23114820.992    23114825.160   -12227317.82749  -9482952.25345
  21610498.203    21610500.970   -19679635.40449 -15297349.08347
  22536797.270    22536798.668   -15964362.59449 -12410832.99447
  22222397.245    22222400.666   -19694364.57549 -15309357.43747
  23361020.002    23361022.687    -6090865.53449  -4719967.92645
  20320230.137    20320231.438   -27654866.37649 -21475175.73648
 09  1  1  2  3  0.0000000  0  9G19G28G 7G32G 8G17G27G20G11
  23806410.865    23806412.839    -7162694.36849  -5549881.83645
  21095965.037    21095966.611   -25218748.33149 -19594626.90047
  23844648.763    23844651.974    -8184647.15249  -6352326.20845
  23104040.366    23104044.754   -12283971.45949  -9527097.91846
  21623928.965    21623932.444   -19609053.07949 -15242349.88547
  22524231.439    22524233.843   -16030392.21949 -12462284.65046
  22232230.197    22232234.160   -19642689.47449 -15269091.13446
  23343920.560    23343923.506    -6180721.83149  -4789985.83145
  20327479.149    20327480.473   -27616771.83249 -21445491.67348
 09  1  1  2  3 30.0000000  0  9G19G28G 7G32G 8G17G27G20G11
  23821800.621    23821801.891    -7081821.41649  -5486864.00845
  21085353.194    21085354.846   -25274514.87749 -19638081.35447
  23865384.988    23865387.231    -8075683.25949  -6267419.32145
  23093329.051    23093332.216   -12340262.17549  -9570960.78246
  21637454.552    21637458.117   -19537976.45849 -15186965.52847
  22511694.088    22511695.977   -16096278.81049 -12513624.84747
  22242145.653    22242149.229   -19590585.09349 -15228490.32846
  23326855.654    23326858.717    -6270398.46949  -4859863.74645
  20334816.150    20334817.529   -27578215.62549 -21415447.87848
 09  1  1  2  4  0.0000000  0  9G19G28G 7G32G 8G17G27G20G11
  23837195.353    23837196.837    -7000920.52249  -5423824.39845
  21074799.810    21074801.439   -25329972.36349 -19681294.97647
  23886130.506    23886133.317    -7966662.75849  -6182468.33646
  23082686.808    23082690.220   -12396187.30449  -9614538.77246
  21651073.434    21651077.016   -19466408.48749 -15131198.29947
  22499183.569    22499184.921   -16162022.39449 -12564853.60646
  22252142.502    22252145.855   -19538053.66349 -15187556.76746
  23309825.913    23309829.498    -6359892.30249  -4929599.20745
  20342240.720    20342241.967   -27539199.53249 -21385045.72548
 09  1  1  2  4 30.0000000  0  9G19G28G 7G32G 8G17G27G20G11
  23852594.373    23852596.857    -6919993.33149  -5360764.29245
  21064305.695    21064307.381   -25385120.07249 -19724267.21547
  23906886.547    23906889.352    -7857590.11249  -6097476.71346
  23072114.118    23072117.569   -12451745.63049  -9657830.95146
  21664784.652    21664788.859   -19394353.52249 -15075051.59247
  22486699.792    22486701.449   -16227624.02449 -12615971.73746
  22262219.936    22262222.859   -19485098.88349 -15146293.31546
  23292831.218    23292834.481    -6449201.41349  -4999190.75745
  20349752.020    20349753.623   -27499726.67449 -21354287.64748
 09  1  1  2  5  0.0000000  0  9G19G28G 7G32G 8G17G27G20G11
  23868000.137    23868001.564    -6839039.06449  -5297683.06645
  21053871.268    21053872.626   -25439953.99149 -19766994.94147
  23927650.892    23927655.003    -7748466.90249  -6012445.67945
  23061612.538    23061615.935   -12506933.49449  -9700834.45746
  21678588.985    21678592.716   -19321813.12549 -15018526.61947
  22474243.595    22474245.347   -16293082.00349 -12666977.94547
  22272376.814    22272379.883   -19431721.44449 -15104700.52046
  23275871.959    23275874.965    -6538321.52049  -5068635.01645
  20357350.470    20357351.728   -27459797.49749 -21323173.99948
 09  1  1  2  5 30.0000000  0  9G19G28G 7G32G 8G17G27G20G11
  23883410.519    23883412.492    -6758056.93049  -5234580.14645
  21043496.770    21043498.371   -25494471.54249 -19809476.15047
  23948426.269    23948429.201    -7639294.94449  -5927376.68045
  23051181.589    23051186.120   -12561747.08049  -9743546.32246
  21692485.235    21692488.706   -19248789.49549 -14961625.11347
  22461814.829    22461816.614   -16358395.88049 -12717871.87547
  22282615.177    22282617.458   -19377922.65149 -15062779.41046
  23258949.634    23258954.028    -6627248.54049  -5137928.81245
  20365035.349    20365036.674   -27419413.10449 -21291705.63948
 09  1  1  2  6  0.0000000  0  9G19G28G 7G32G 8G17G27G20G11
  23898826.207    23898827.444    -6677049.13949  -5171457.24345
  21033182.831    21033184.279   -25548672.37549 -19851710.57247
  23969209.202    23969212.253    -7530078.91949  -5842273.33545
  23040822.261    23040826.376   -12616185.65949  -9785965.97346
  21706472.052    21706475.939   -19175287.05549 -14904350.50747
  22449413.404    22449414.922   -16423566.90649 -12768654.48847
  22292931.754    22292934.191   -19323706.26749 -15020532.89146
  23242064.394    23242067.990    -6715980.81349  -5207070.84045
  20372806.240    20372807.611   -27378576.85449 -21259885.19148
 09  1  1  2  6 30.0000000  0  9G19G28G 7G32G 8G17G27G20G11
  23914246.422    23914248.721    -6596015.76349  -5108314.39345
  21022929.419    21022931.044   -25602553.83349 -19893696.12747
  23990000.768    23990003.620    -7420821.61449  -5757137.82345
  23030534.643    23030539.103   -12670246.17749  -9828091.03346
  21720549.407    21720552.894   -19101308.54849 -14846704.93647
  22437038.871    22437040.558   -16488594.18949 -12819325.07847
  22303327.358    22303330.861   -19269074.14249 -14977962.42546
  23225217.227    23225220.827    -6804515.06749  -5276058.56045
  20380663.051    20380664.268   -27337289.97149 -21227713.59148
 09  1  1  2  7  0.0000000  0  9G19G28G 7G32G 8G17G27G20G11
  23929671.613    23929672.862    -6514956.73049  -5045151.56445
  21012737.375    21012738.979   -25656113.01749 -19935430.56947
  24010798.120    24010801.906    -7311524.93149  -5671971.64845
  23020320.863    23020324.204   -12723925.40049  -9869918.96446
  21734717.928    21734720.996   -19026855.88949 -14788689.89847
  22424692.339    22424694.152   -16553477.15349 -12869883.22747
  22313802.376    22313805.847   -19214027.81049 -14935069.19746
  23208407.114    23208410.635    -6892847.14149  -5344888.71945
  20388605.092    20388606.310   -27295553.82149 -21195191.92148
 09  1  1  2  7 30.0000000  0  9G19G28G 7G32G 8G17G27G20G11
  23945101.421    23945103.446    -6433871.72949  -4981968.48345
  21002607.178    21002609.074   -25709347.46249 -19976911.95647
  24031605.276    24031607.344    -7202191.59649  -5586776.88045
  23010178.315    23010182.470   -12777220.39649  -9911447.52146
  21748975.308    21748978.631   -18951931.87049 -14730307.56247
  22412372.847    22412374.778   -16618215.29049 -12920328.52347
  22324356.090    22324359.199   -19158569.15249 -14891854.68246
  23191637.294    23191640.933    -6980973.71449  -5413558.71945
  20396632.305    20396633.605   -27253369.98149 -21162321.40048
 09  1  1  2  8  0.0000000  0  9G19G28G 7G32G 8G17G27G20G11
  23960536.026    23960538.274    -6352762.15349  -4918766.26845
  20992539.128    20992540.729   -25762256.25749 -20018139.59447
  24052416.269    24052419.141    -7092825.44449  -5501556.56645
  23000110.835    23000112.513   -12830129.79249  -9952675.58146
  21763321.936    21763325.463   -18876540.93449 -14671561.39447
  22400081.087    22400083.512   -16682809.28449 -12970661.49347
  22334987.420    22334990.480   -19102701.34549 -14848321.34946
  23174907.076    23174910.636    -7068892.64449  -5482066.89545
  20404744.389    20404745.540   -27210741.30849 -21129104.25648
 09  1  1  2  8 30.0000000  0  9G19G28G 7G32G 8G17G27G20G11
  23975974.648    23975977.024    -6271629.34549  -4855545.92945
  20982532.985    20982534.817   -25814838.16249 -20059112.50747
  24073233.677    24073235.419    -6983430.33849  -5416313.67245
  22990114.945    22990119.152   -12882651.89849  -9993601.90246
  21777756.223    21777759.844   -18800686.67349 -14612454.19647
  22387816.817    22387818.654   -16747260.03049 -13020882.85047
  22345696.096    22345699.204   -19046427.85249 -14804471.89146
  23158216.700    23158220.855    -7156601.88449  -5550411.68245
  20412940.505    20412941.570   -27167670.57149 -21095542.64348
 09  1  1  2  9  0.0000000  0  9G19G28G 7G32G 8G17G27G20G11
  23991419.026    23991420.010    -6190472.10849  -4792306.55545
  20972590.278    20972591.702   -25867089.22149 -20099827.62747
  24094056.752    24094058.141    -6874007.22249  -5331048.97245
  22980194.542    22980199.443   -12934782.51049 -10034223.14346
  21792279.429    21792282.195   -18724370.28349 -14552986.89647
  22375579.469    22375581.584   -16811565.32349 -13070990.86347
  22356481.100    22356484.186   -18989749.16349 -14760306.69746
  23141566.977    23141569.951    -7244096.38549  -5618589.13745
  20421220.623    20421221.770   -27124157.69749 -21061636.51748
 09  1  1  2  9 30.0000000  0  9G19G28G 7G32G 8G17G27G20G11
  24006867.422    24006868.768    -6109291.23449  -4729048.76345
  20962710.168    20962711.816   -25919007.67149 -20140283.56747
  24114884.083    24114885.852    -6764559.53849  -5245765.12745
  22970349.748    22970353.109   -12986519.47649 -10074537.64346
  21806889.275    21806892.015   -18647595.17749 -14493162.15847
  22363370.721    22363372.512   -16875725.45049 -13120985.74647
  22367343.300    22367347.274   -18932667.96049 -14715827.86846
  23124959.134    23124961.408    -7331373.27349  -5686597.02345
  20429584.533    20429585.728   -27080205.17449 -21027387.80548
 09  1  1  2 10  0.0000000  0  9G19G28G 7G32G 8G17G27G20G11
  24022319.714    24022321.329    -6028088.09949  -4665773.64545
  20952893.973    20952895.686   -25970592.20949 -20180479.31447
  24135714.832    24135717.188    -6655090.90149  -5160464.92545
  22960579.302    22960583.830   -13037860.93649 -10114543.95546
  21821585.371    21821588.466   -18570364.98649 -14432982.80247
  22351188.654    22351189.881   -16939741.07149 -13170868.02347
  22378281.498    22378285.193   -18875187.18549 -14671037.67346
  23108392.153    23108395.236    -7418430.05049  -5754433.39046
  20438031.665    20438032.765   -27035815.47249 -20992798.43848
 09  1  1  2 10 30.0000000  0  9G19G28G 7G32G 8G17G27G20G11
  24037776.534    24037777.690    -5946862.06449  -4602480.65545
  20943141.605    20943143.622   -26021840.28349 -20220412.88647
  24156549.479    24156551.690    -6545603.94849  -5075150.47545
  22950885.782    22950889.975   -13088804.30649 -10154240.06146
  21836367.747    21836371.033   -18492682.93049 -14372451.34647
  22339034.378    22339036.154   -17003611.64349 -13220637.29847
  22389295.483    22389298.993   -18817308.94249 -14625937.75346
  23091868.732    23091871.718    -7505263.46949  -5822095.70646
  20446561.450    20446562.759   -26990990.39649 -20957869.81248
 09  1  1  2 11  0.0000000  0  9G19G28G 7G32G 8G17G27G20G11
  24053236.501    24053239.297    -5865613.53949  -4539170.14745
  20933453.931    20933455.824   -26072749.59149 -20260082.48047
  24177386.344    24177390.680    -6436101.50749  -4989823.95545
  22941267.991    22941271.558   -13139346.79149 -10193623.80246
  21851235.834    21851238.978   -18414551.52549 -14311569.75147
  22326907.534    22326909.466   -17067336.75749 -13270293.21247
  22400384.776    22400388.074   -18759035.37849 -14580529.80646
  23075388.511    23075390.775    -7591870.27449  -5889581.45546
  20455174.038    20455175.402   -26945731.46749 -20922603.12148
 09  1  1  2 11 30.0000000  0  9G19G28G 7G32G 8G17G27G20G11
  24068702.914    24068704.759    -5784343.03149  -4475842.51445
  20923831.283    20923833.063   -26123318.27249 -20299486.64547
  24198226.297    24198229.627    -6326586.22949  -4904487.40745
  22931726.466    22931730.706   -13189486.18549 -10232693.45346
  21866188.283    21866191.849   -18335974.40349 -14250340.83447
  22314808.629    22314811.143   -17130916.41349 -13319835.80147
  22411548.987    22411551.927   -18700368.95949 -14534815.73046
  23058950.621    23058954.050    -7678247.25049  -5956888.12246
  20463868.589    20463869.994   -26900040.98849 -20887000.15848
 09  1  1  2 12  0.0000000  0  9G19G28G 7G32G 8G17G27G20G11
  24084171.815    24084173.085    -5703052.43549  -4412499.22845
  20914273.390    20914275.022   -26173545.56349 -20338624.79347
  24219068.228    24219072.407    -6217062.24449  -4819144.09845
  22922262.528    22922265.726   -13239221.24949 -10271448.03046
  21881224.673    21881228.969   -18256955.57349 -14188767.73447
  22302737.666    22302739.297   -17194351.41149 -13369265.66347
  22422787.487    22422790.251   -18641313.04249 -14488798.15446
  23042557.310    23042561.554    -7764392.68349  -6024014.36946
  20472644.743    20472645.954   -26853921.84649 -20851063.17248
 09  1  1  2 12 30.0000000  0  9G19G28G 7G32G 8G17G27G20G11
  24099645.213    24099646.616    -5621739.34249  -4349138.41645
  20904781.331    20904782.652   -26223427.16749 -20377493.58247
  24239911.778    24239914.582    -6107530.29149  -4733794.58645
  22912876.356    22912879.798   -13288547.31549 -10309883.93446
  21896345.875    21896348.996   -18177495.93649 -14126851.14247
  22290694.134    22290696.332   -17257639.51649 -13418581.07047
  22434098.447    22434102.287   -18581868.00549 -14442477.35546
  23026209.507    23026212.924    -7850301.18649  -6090956.03346
  20481502.771    20481504.036   -26807373.78949 -20814791.97547
 09  1  1  2 13  0.0000000  0  9G19G28G 7G32G 8G17G27G20G11
  24115122.028    24115124.835    -5540405.08249  -4285761.10945
  20895355.257    20895356.964   -26272961.36449 -20416091.66747
  24260755.568    24260760.246    -5997993.78149  -4648441.53245
  22903567.470    22903571.204   -13337462.86149 -10347999.93646
  21911549.370    21911552.385   -18097599.78449 -14064594.41847
  22278678.961    22278680.820   -17320781.26549 -13467782.42547
  22445484.205    22445487.080   -18522036.89849 -14395855.73846
  23009907.093    23009910.328    -7935970.20349  -6157711.07846
  20490441.622    20490442.915   -26760399.63249 -20778188.74647
 09  1  1  2 13 30.0000000  0  9G19G28G 7G32G 8G17G27G20G11
  24130604.450    24130605.774    -5459050.28849  -4222367.80745
  20885995.496    20885997.125   -26322146.64949 -20454417.86647
  24281600.378    24281603.461    -5888456.11149  -4563087.57745
  22894337.970    22894342.066   -13385965.72649 -10385794.38246
  21926835.368    21926839.301   -18017270.55649 -14002000.22846
  22266691.220    22266693.164   -17383776.69349 -13516869.77047
  22456943.202    22456945.854   -18461822.50249 -14348935.44646
  22993651.177    22993654.267    -8021396.93349  -6224277.33046
  20499461.118    20499462.565   -26713001.60349 -20741255.22347
 09  1  1  2 14  0.0000000  0  9G19G28G 7G32G 8G17G27G20G11
  24146089.030    24146090.719    -5377675.70749  -4158959.06745
  20876702.440    20876704.489   -26370981.20449 -20492470.76747
  24302444.618    24302447.684    -5778920.41149  -4477735.18045
  22885186.655    22885190.512   -13434053.80149 -10423265.60546
  21942203.449    21942207.246   -17936511.38249 -13939071.01146
  22254732.199    22254733.680   -17446625.94349 -13565843.20647
  22468473.939    22468476.694   -18401227.36449 -14301718.48046
  22977441.848    22977444.355    -8106578.50249  -6290652.55746
  20508561.049    20508562.236   -26665181.92449 -20703993.14347
 09  1  1  2 14 30.0000000  0  9G19G28G 7G32G 8G17G27G20G11
  24161577.808    24161579.902    -5296281.26349  -4095534.85745
  20867476.866    20867478.709   -26419462.58849 -20530248.47847
  24323287.119    24323291.223    -5669389.17149  -4392386.21545
  22876115.895    22876119.700   -13481724.57649 -10460411.66946
  21957652.414    21957656.506   -17855325.05849 -13875808.95146
  22242799.950    22242801.528   -17509328.73549 -13614702.52647
  22480076.237    22480079.893   -18340253.75249 -14254206.59146
  22961280.067    22961282.569    -8191511.69649  -6356834.25246
  20517740.724    20517741.944   -26616942.15649 -20666403.72247
 09  1  1  2 15  0.0000000  0  9G19G28G 7G32G 8G17G27G20G11
  24177071.172    24177071.891    -5214867.00649  -4032095.21345
  20858318.956    20858320.632   -26467587.99849 -20567748.80047
  24344129.110    24344133.098    -5559864.58549  -4307042.42345
  22867124.249    22867127.222   -13528975.13149 -10497230.28246
  21973182.682    21973186.481   -17773714.38349 -13812216.23346
  22230895.791    22230898.201   -17571884.11549 -13663446.97947
  22491751.085    22491754.230   -18278903.70849 -14206401.38046
  22945164.783    22945168.416    -8276192.65149  -6422819.40646
  20526999.784    20527001.293   -26568283.92849 -20628488.22447
 09  1  1  2 15 30.0000000  0  9G19G28G 7G32G 8G17G27G20G11
  24192567.024    24192569.394    -5133433.54849  -3968640.58945
  20849228.919    20849230.650   -26515356.22649 -20604970.79247
  24364969.722    24364972.335    -5450350.34749  -4221706.70445
  22858212.859    22858217.170   -13575803.66049 -10533720.04646
  21988793.145    21988796.160   -17691683.16349 -13748295.81846
  22219019.813    22219022.033   -17634292.29449 -13712076.73047
  22503496.953    22503499.838   -18217180.18349 -14158305.15146
  22929099.834    22929102.572    -8360619.01749  -6488606.17946
  20536338.319    20536339.676   -26519209.87149 -20590248.70447
 09  1  1  2 16  0.0000000  0  9G19G28G 7G32G 8G17G27G20G11
  24208066.714    24208068.398    -5051981.65149  -3905171.61045
  20840207.145    20840208.899   -26562765.49649 -20641913.08747
  24385808.326    24385810.519    -5340849.36549  -4136381.31645
  22849382.951    22849385.951   -13622208.37549 -10569879.57246
  22004482.484    22004485.113   -17609234.92049 -13684050.44946
  22207171.565    22207173.930   -17696553.42749 -13760591.91147
  22515312.973    22515315.790   -18155086.08349 -14109920.16246
  22913083.003    22913085.711    -8444787.93949  -6554192.34946
  20545755.579    20545757.169   -26469722.33449 -20551686.99747
 09  1  1  2 16 30.0000000  0  9G19G28G 7G32G 8G17G27G20G11
  24223570.211    24223572.029    -4970511.09349  -3841688.08945
  20831254.503    20831256.052   -26609813.04549 -20678573.51947
  24406642.193    24406644.760    -5231363.79849  -4051067.97145
  22840633.089    22840636.866   -13668186.37049 -10605706.58746
  22020250.728    22020253.720   -17526372.44449 -13619482.31946
  22195352.187    22195354.258   -17758666.81949 -13808991.95847
  22527200.044    22527202.317   -18092623.11849 -14061247.73646
  22897115.277    22897118.358    -8528695.52549  -6619574.88446
  20555251.206    20555252.486   -26419822.47249 -20512803.99547
 09  1  1  2 17  0.0000000  0  9G19G28G 7G32G 8G17G27G20G11
  24239076.886    24239078.218    -4889021.69549  -3778189.88645
  20822370.963    20822372.701   -26656496.52849 -20714950.26847
  24427473.632    24427475.432    -5121896.23049  -3965768.63645
  22831965.369    22831968.871   -13713735.03249 -10641199.05646
  22036097.217    22036100.315   -17443098.55349 -13554593.58946
  22183560.181    22183562.362   -17820632.15449 -13857276.64347
  22539154.718    22539158.113   -18029793.66649 -14012289.74146
  22881198.966    22881201.931    -8612339.01549  -6684751.63246
  20564824.988    20564826.378   -26369512.20249 -20473601.19547
 09  1  1  2 17 30.0000000  0  9G19G28G 7G32G 8G17G27G20G11
  24254587.069    24254589.520    -4807513.93049  -3714677.37845
  20813556.824    20813558.678   -26702814.12049 -20751041.90847
  24448299.884    24448302.544    -5012449.84649  -3880485.82645
  22823379.733    22823383.662   -13758852.20449 -10676355.29446
  22052021.623    22052024.051   -17359416.82349 -13489387.06746
  22171797.074    22171798.925   -17882449.46349 -13905445.97747
  22551180.832    22551183.743   -17966600.39349 -13963048.24946
  22865333.139    22865336.214    -8695715.00449  -6749719.94346
  20574476.626    20574477.973   -26318793.35849 -20434080.02647
 09  1  1  2 18  0.0000000  0  9G19G28G 7G32G 8G17G27G20G11
  24270101.718    24270103.740    -4725988.28549  -3651150.94345
  20804813.018    20804814.661   -26748763.46649 -20786846.60147
  24469121.700    24469126.408    -4903027.23749  -3795221.52745
  22814877.229    22814880.795   -13803535.65049 -10711173.55846
  22068022.116    22068025.057   -17275330.18749 -13423865.03146
  22160061.399    22160063.401   -17944118.01949 -13953499.39347
  22563275.000    22563277.308   -17903045.57749 -13913525.03346
  22849518.847    22849521.923    -8778820.14749  -6814477.19446
  20584205.461    20584206.387   -26267668.23149 -20394242.26847
 09  1  1  2 18 30.0000000  0  9G19G28G 7G32G 8G17G27G20G11
  24285618.076    24285619.639    -4644445.73849  -3587611.34545
  20796139.362    20796141.110   -26794343.27549 -20822363.33747
  24489938.328    24489943.154    -4793631.72949  -3709978.33945
  22806457.018    22806461.245   -13847783.58549 -10745652.48946
  22084099.866    22084103.645   -17190842.72649 -13358030.66546
  22148355.253    22148356.488   -18005638.39549 -14001437.34747
  22575436.920    22575440.068   -17839132.33349 -13863722.51346
  22833756.929    22833759.152    -8861652.04249  -6879021.52446
  20594010.923    20594012.288   -26216139.15149 -20354089.74047
 09  1  1  2 19  0.0000000  0  9G19G28G 7G32G 8G17G27G20G11
  24301137.912    24301140.507    -4562885.95449  -3524058.31245
  20787536.578    20787538.407   -26839551.35149 -20857590.41647
  24510748.992    24510753.441    -4684266.06049  -3624758.40845
  22798120.060    22798123.736   -13891593.84949 -10779790.34746
  22100253.163    22100256.527   -17105957.33749 -13291886.21946
  22136676.688    22136678.164   -18067010.22749 -14049259.54547
  22587666.774    22587670.007   -17774863.42449 -13813642.86746
  22818046.455    22818049.698    -8944207.40049  -6943350.36446
  20603892.862    20603894.292   -26164208.26949 -20313624.11447
 09  1  1  2 19 30.0000000  0  9G19G28G 7G32G 8G17G27G20G11
  24316661.885    24316664.241    -4481310.90849  -3460493.38645
  20779004.664    20779006.138   -26884387.14449 -20892527.39847
  24531555.607    24531558.824    -4574934.72049  -3539565.22545
  22789865.634    22789870.316   -13934965.76349 -10813586.65446
  22116481.199    22116484.401   -17020678.72549 -13225435.38146
  22125025.883    22125027.174   -18128234.77049 -14096966.97647
  22599964.020    22599966.185   -17710242.87449 -13763289.21046
  22802390.514    22802392.824    -9026484.72949  -7007462.55946
  20613850.978    20613852.159   -26111879.21549 -20272848.23047
 09  1  1  2 20  0.0000000  0  9G19G28G 7G32G 8G17G27G20G11
  24332188.107    24332190.407    -4399718.73549  -3396915.10345
  20770544.371    20770546.028   -26928846.22149 -20927170.84647
  24552353.769    24552358.370    -4465637.39649  -3454398.51445
  22781696.979    22781701.481   -13977894.63149 -10847037.73646
  22132783.823    22132787.430   -16935008.23149 -13158679.16646
  22113403.949    22113405.298   -18189309.42649 -14144557.61847
  22612326.862    22612330.327   -17645270.51749 -13712661.42146
  22786786.946    22786789.477    -9108478.88249  -7071354.10546
  20623884.852    20623886.075   -26059150.91449 -20231761.24047
 09  1  1  2 20 30.0000000  0  9G19G28G 7G32G 8G17G27G20G11
  24347717.806    24347719.849    -4318110.47449  -3333324.30745
  20762155.998    20762157.696   -26972927.09349 -20961519.58347
  24573147.614    24573147.898    -4356377.91249  -3369261.36445
  22773614.305    22773616.814   -14020378.93249 -10880142.39746
  22149160.345    22149163.496   -16848949.37349 -13091620.33646
  22101810.015    22101811.670   -18250234.61349 -14192031.78247
  22624756.977    22624760.585   -17579949.64749 -13661762.06646
  22771237.880    22771242.064    -9190186.91249  -7135022.69446
  20633993.883    20633995.205   -26006026.84249 -20190365.86247
 09  1  1  2 21  0.0000000  0  9G19G28G 7G32G 8G17G27G20G11
  24363250.473    24363253.935    -4236485.49249  -3269720.46745
  20753840.175    20753841.846   -27016627.31249 -20995571.70347
  24593929.977    24593933.086    -4247158.77849  -3284155.61445
  22765613.324    22765617.244   -14062416.40049 -10912898.88146
  22165610.047    22165613.452   -16762505.05849 -13024261.15246
  22090244.892    22090246.958   -18311009.46449 -14239388.80647
  22637253.076    22637256.906   -17514282.62449 -13610592.97546
  22755745.235    22755747.029    -9271605.52649  -7198465.76246
  20644178.223    20644179.499   -25952508.58349 -20148663.33047
 09  1  1  2 22  0.0000000  0  9G19G28G 7G32G 8G17G27G20G11
  24394326.449    24394328.268    -4073187.44549  -3142475.32945
  20737427.318    20737428.834   -27102878.18449 -21062780.19647
  24635471.648    24635475.689    -4028852.42549  -3114046.89545
  22749870.772    22749875.473   -14145142.08449 -10977360.49246
  22198726.561    22198730.893   -16588474.68849 -12888653.10146
  22067200.325    22067202.613   -18432108.49349 -14333751.69147
  22662441.128    22662444.681   -17381920.36749 -13507453.58646
  22724925.791    22724928.035    -9433562.65149  -7324666.12146
  20664770.097    20664771.380   -25844297.30049 -20064342.85647
 09  1  1  2 22 30.0000000  0  9G19G28G 7G32G 8G17G27G20G11
  24409867.450    24409869.280    -3991514.69849  -3078834.25645
  20729330.943    20729332.673   -27145424.76749 -21095933.39047
  24656229.547    24656233.044    -3919770.37949  -3029047.99245
  22742129.621    22742133.262   -14185825.98649 -11009062.24646
  22215392.594    22215396.561   -16500894.86949 -12820409.10446
  22055720.912    22055723.410   -18492431.63649 -14380756.74547
  22675131.973    22675135.265   -17315230.29249 -13455487.31146
  22709600.371    22709603.290    -9514094.72449  -7387418.38346
  20675177.063    20675178.538   -25789607.94549 -20021727.77047
 09  1  1  2 23  0.0000000  0  9G19G28G 7G32G 8G17G27G20G11
  24425412.139    24425415.095    -3909825.08749  -3015180.07545
  20721308.886    20721310.520   -27187581.27949 -21128782.62447
  24676977.794    24676979.762    -3810738.14849  -2944087.86545
  22734474.541    22734478.095   -14226053.11949 -11040408.08246
  22232130.157    22232133.416   -16412941.67949 -12751874.16546
  22044270.999    22044273.203   -18552602.29749 -14427642.97847
  22687887.392    22687890.153   -17248203.04949 -13403258.31346
  22694332.870    22694335.195    -9594323.77549  -7449934.53146
  20685657.897    20685659.179   -25734531.18149 -19978810.81547
 09  1  1  2 23 30.0000000  0  9G19G28G 7G32G 8G17G27G20G11
  24440959.496    24440961.075    -3828122.33349  -2951515.65245
  20713360.699    20713362.506   -27229348.80349 -21161328.76047
  24697715.577    24697719.243    -3701761.66949  -2859171.16645
  22726906.460    22726910.002   -14265824.64149 -11071398.87946
  22248936.612    22248939.912   -16324621.70449 -12683053.42246
  22032849.506    22032851.613   -18612623.68249 -14474412.89147
  22700704.959    22700708.733   -17180844.68649 -13350771.29146
  22679124.099    22679127.325    -9674250.04249  -7512214.73946
  20696211.281    20696212.680   -25679072.20049 -19935596.02647
 09  1  1  2 24  0.0000000  0  9G19G28G 7G32G 8G17G27G20G11
  24456511.140    24456511.299    -3746405.74349  -2887840.42145
  20705487.160    20705488.676   -27270724.81549 -21193569.81447
  24718442.658    24718444.570    -3592842.96249  -2774299.51045
  22719425.319    22719428.919   -14305137.93049 -11102032.61946
  22265812.379    22265816.082   -16235937.83149 -12613949.11746
  22021456.493    22021458.005   -18672494.76149 -14521065.67547
  22713585.512    22713588.183   -17113157.02949 -13298027.68246
  22663972.588    22663976.508    -9753869.56249  -7574255.92446
  20706837.335    20706838.596   -25623232.34049 -19892084.45247
 09  1  1  2 24 30.0000000  0  9G19G28G 7G32G 8G17G27G20G11
  24472063.833    24472063.970    -3664675.13149  -2824154.30445
  20697688.628    20697690.093   -27311706.84649 -21225503.87247
  24739158.587    24739160.791    -3483984.23549  -2689474.55145
  22712032.317    22712035.653   -14343990.39949 -11132307.25046
  22282756.918    22282760.707   -16146892.88749 -12544563.47546
  22010092.020    22010093.899   -18732214.74249 -14567600.71347
  22726527.462    22726532.144   -17045142.12349 -13245029.06646
  22648881.396    22648883.592    -9833178.97049  -7636055.48946
  20717535.399    20717536.861   -25567013.29049 -19848277.40447
 09  1  1  2 25  0.0000000  0  9G19G28G 7G32G 8G17G27G20G11
  24487619.014    24487620.637    -3582931.31249  -2760457.85245
  20689965.225    20689966.842   -27352293.04549 -21257129.48947
  24759862.014    24759865.936    -3375188.24849  -2604698.52345
  22704727.124    22704730.037   -14382380.25549 -11162221.42146
  22299769.691    22299773.628   -16057490.31449 -12474899.14646
  21998756.987    21998758.363   -18791783.38849 -14614017.82647
  22739532.549    22739535.787   -16976802.75649 -13191777.63346
  22633848.243    22633851.253    -9912175.22949  -7697611.03946
  20728305.473    20728306.518   -25510416.99949 -19804176.41247
 09  1  1  2 25 30.0000000  0  9G19G28G 7G32G 8G17G27G20G11
  24503177.073    24503178.934    -3501173.71149  -2696750.69145
  20682317.669    20682319.075   -27392481.27949 -21288444.99747
  24780550.872    24780554.550    -3266457.62449  -2519973.39945
  22697509.231    22697514.305   -14420305.12049 -11191773.24946
  22316849.946    22316853.553   -15967733.29549 -12404958.63146
  21987449.745    21987451.406   -18851200.38249 -14660316.76247
  22752598.674    22752602.251   -16908141.54949 -13138275.41346
  22618875.768    22618879.057    -9990855.21549  -7758920.13846
  20739146.717    20739148.004   -25453445.52849 -19759783.06547
 09  1  1  2 26  0.0000000  0  9G19G28G 7G32G 8G17G27G20G11
  24518737.381    24518738.271    -3419402.77849  -2633033.13945
  20674746.291    20674747.748   -27432269.01249 -21319448.44147
  24801230.226    24801234.374    -3157794.87049  -2435301.16645
  22690382.055    22690385.641   -14457762.99649 -11220961.18346
  22333996.756    22334000.754   -15877624.58849 -12334744.07946
  21976172.123    21976174.393   -18910464.98449 -14706496.97747
  22765724.997    22765729.001   -16839161.09749 -13084524.42746
  22603964.811    22603967.077   -10069215.55549  -7819980.16446
  20750059.103    20750060.329   -25396100.70849 -19715098.79947
 09  1  1  2 28 30.0000000  0 10G 4G19G28G 7G32G 8G17G27G20G11
  24618735.524    24618739.600     -572330.60449   -401895.95445
  24596576.095    24596579.649    -3010354.13849  -2314294.34245
  20638044.799    20638046.077   -27625137.71049 -21469735.78547
  24904406.858    24904409.885    -2615594.44149  -2012807.55845
  22656087.327    22656091.042   -14637981.91849 -11361391.40346
  22420712.234    22420715.886   -15421932.76349 -11979659.64646
  21920219.488    21920221.827   -19204497.15349 -14935612.96547
  22832251.461    22832254.892   -16489564.63949 -12812111.72846
  22530338.721    22530342.226   -10456120.78749  -8121464.86646
  20805672.463    20805673.725   -25103851.80949 -19487372.45747
 09  1  1  2 29  0.0000000  0 10G 4G19G28G 7G32G 8G17G27G20G11
  24597559.984    24597564.356     -683606.57349   -488604.49945
  24612151.512    24612152.969    -2928509.34349  -2250519.25745
  20630937.649    20630939.189   -27662485.55449 -21498838.00947
  24924997.114    24925000.841    -2507397.50549  -1928498.32345
  22649500.047    22649502.861   -14672600.26749 -11388366.70746
  22438246.975    22438249.917   -15329790.19749 -11907860.27846
  21909116.284    21909118.468   -19262845.68349 -14981079.35447
  22845731.149    22845734.840   -16418727.52449 -12756913.99646
  22515804.213    22515806.989   -10532503.24849  -8180983.68146
  20817001.830    20817003.279   -25044313.82249 -19440979.23447
 09  1  1  2 29 30.0000000  0 10G 4G19G28G 7G32G 8G17G27G20G11
  24576408.786    24576411.696     -794758.41749   -575216.32345
  24627728.428    24627731.209    -2846651.62949  -2186734.13345
  20623909.674    20623910.969   -27699418.23049 -21527616.72247
  24945568.752    24945569.929    -2399285.96749  -1844255.57845
  22643003.545    22643007.210   -14706737.53349 -11414967.14646
  22455843.533    22455846.281   -15237319.26649 -11835805.02246
  21898042.521    21898044.350   -19321038.97749 -15026424.77447
  22859268.278    22859271.216   -16347589.13449 -12701481.51046
  22501333.561    22501336.842   -10608544.19549  -8240236.37846
  20828400.179    20828401.470   -24984416.00649 -19394305.62747
 09  1  1  2 30  0.0000000  0 10G 4G19G28G 7G32G 8G17G27G20G11
  24555280.553    24555284.491     -905784.36549   -661730.04045
  24643308.283    24643309.508    -2764781.41049  -2122939.25845
  20616960.935    20616962.531   -27735934.04649 -21556070.61647
  24966124.232    24966129.347    -2291262.26949  -1760081.29745
  22636599.198    22636603.351   -14740391.76349 -11441191.19546
  22473502.418    22473504.525   -15144523.56349 -11763496.71846
  21886998.766    21887000.098   -19379076.71349 -15071648.99047
  22872861.767    22872865.627   -16276152.03349 -12645816.27146
  22486929.403    22486932.673   -10684240.64649  -8299220.63546
  20839866.341    20839867.687   -24924160.56649 -19347353.34947
 09  1  1  2 30 30.0000000  0 10G 4G19G28G 7G32G 8G17G27G20G11
  24534177.892    24534181.592    -1016683.25149   -748144.75545
  24658889.036    24658891.495    -2682899.28849  -2059135.08645
  20610091.850    20610093.270   -27772032.21749 -21584199.07147
  24986662.803    24986667.008    -2183330.40049  -1675978.61045
  22630286.858    22630291.204   -14773562.09549 -11467038.17146
  22491221.771    22491223.961   -15051407.09149 -11690938.45146
  21875983.941    21875985.436   -19436959.77849 -15116752.66247
  22886512.997    22886515.511   -16204419.93749 -12589921.15046
  22472590.240    22472593.522   -10759590.65949  -8357934.93946
  20851400.196    20851401.431   -24863550.68449 -19300124.88447
 09  1  1  2 31  0.0000000  0 10G 4G19G28G 7G32G 8G17G27G20G11
  24513099.814    24513101.235    -1127453.30949   -834459.09245
  24674472.968    24674475.461    -2601005.65949  -1995321.96745
  20603302.361    20603304.007   -27807710.57549 -21612000.39147
  25007185.096    25007187.392    -2075492.61449  -1591949.19245
  22624067.004    22624071.450   -14806246.74949 -11492506.70346
  22509001.832    22509004.334   -14957973.45249 -11618133.03846
  21864998.377    21865000.134   -19494687.58449 -15161735.37147
  22900218.129    22900221.966   -16132395.80749 -12533798.47846
  22458317.450    22458321.265   -10834591.03849  -8416376.78646
  20863000.815    20863002.013   -24802588.31049 -19252621.74847
 09  1  1  2 31 30.0000000  0 10G 4G19G28G 7G32G 8G17G27G20G11
  24492042.722    24492048.016    -1238092.30849   -920671.29345
  24690059.298    24690061.661    -2519100.16649  -1931499.59345
  20596593.245    20596595.068   -27842966.45949 -21639472.51647
  25027686.043    25027690.971    -1967751.43449  -1507995.08445
  22617940.476    22617944.232   -14838443.43549 -11517594.99946
  22526840.203    22526844.466   -14864225.65349 -11545082.83746
  21854042.731    21854044.337   -19552259.41349 -15206596.54347
  22913980.162    22913983.196   -16060081.69649 -12477449.84946
  22444113.044    22444116.691   -10909238.26049  -8474543.44446
  20874668.258    20874669.745   -24741274.69449 -19204844.91647
 09  1  1  2 32  0.0000000  0 10G 4G19G28G 7G32G 8G17G27G20G11
  24471016.598    24471021.087    -1348598.72249  -1006780.18945
  24705647.156    24705650.669    -2437183.00449  -1867668.11745
  20589965.104    20589966.771   -27877798.17049 -21666614.12047
  25048172.751    25048174.009    -1860109.12049  -1424118.05045
  22611907.062    22611910.446   -14870150.67649 -11542301.92546
  22544739.402    22544742.086   -14770167.15249 -11471790.53146
  21843116.765    21843118.553   -19609675.02949 -15251335.98747
  22927794.718    22927798.902   -15987480.73949 -12420877.69646
  22429977.290    22429979.726   -10983529.64449  -8532432.82046
  20886402.315    20886403.735   -24679612.54549 -19156796.50647
 09  1  1  2 32 30.0000000  0 10G 4G19G28G 7G32G 8G17G27G20G11
  24450012.539    24450017.138    -1458970.69549  -1092784.32645
  24721238.733    24721240.082    -2355254.90049  -1803828.14645
  20583417.846    20583419.541   -27912204.42649 -21693424.20447
  25068637.034    25068637.719    -1752568.46549  -1340320.20545
  22605966.405    22605970.246   -14901366.85049 -11566626.18546
  22562697.090    22562699.876   -14675801.68849 -11398259.02246
  21832220.628    21832222.278   -19666934.64749 -15295953.86747
  22941663.687    22941667.437   -15914595.66449 -12364084.16146
  22415907.670    22415910.686   -11057462.48049  -8590042.79646
  20898201.966    20898203.801   -24617604.28949 -19108478.39747
 09  1  1  2 33  0.0000000  0 10G 4G19G28G 7G32G 8G17G27G20G11
  24429035.850    24429040.111    -1569206.45049  -1178682.28845
  24736830.069    24736834.055    -2273316.11349  -1739979.81945
  20576951.713    20576953.621   -27946183.17349 -21719901.16047
  25089080.601    25089083.062    -1645132.32449  -1256603.80645
  22600120.332    22600123.717   -14932090.40649 -11590566.60146
  22580711.349    22580715.501   -14581132.53649 -11324490.87546
  21821354.231    21821356.114   -19724037.79949 -15340449.83247
  22955587.188    22955590.973   -15841429.60149 -12307071.68346
  22401906.763    22401910.346   -11131033.98349  -8647371.21546
  20910067.422    20910068.816   -24555252.06749 -19059892.26647
 09  1  1  2 33 30.0000000  0 10G 4G19G28G 7G32G 8G17G27G20G11
  24408083.985    24408089.242    -1679305.00949  -1264473.33445
  24752425.962    24752428.533    -2191367.32749  -1676123.71545
  20570567.393    20570569.054   -27979733.55249 -21746044.32847
  25109503.752    25109508.416    -1537804.02349  -1172971.44245
  22594367.225    22594371.163   -14962320.14649 -11614122.22046
  22598783.618    22598787.148   -14486163.79649 -11250489.29546
  21810517.843    21810519.588   -19780984.75549 -15384824.07847
  22969563.362    22969565.989   -15767985.66649 -12249842.66646
  22387975.767    22387979.219   -11204241.67749  -8704416.14946
  20921997.722    20921999.124   -24492558.45549 -19011040.11547
 09  1  1  2 34  0.0000000  0 10G 4G19G28G 7G32G 8G17G27G20G11
  24387158.831    24387163.452    -1789264.78249  -1350156.22845
  24768021.136    24768023.805    -2109409.04249  -1612260.21045
  20564264.916    20564266.606   -28012853.43649 -21771852.03447
  25129906.668    25129910.172    -1430586.13549  -1089425.10745
  22588709.122    22588712.926   -14992054.84249 -11637292.08946
  22616911.348    22616915.891   -14390899.38149 -11176257.30346
  21799710.594    21799712.721   -19837775.69849 -15429076.76447
  22983591.761    22983594.228   -15694267.34849 -12192399.84146
  22374115.402    22374118.169   -11277082.94049  -8761175.54046
  20933992.479    20933993.526   -24429525.60049 -18961923.61947
 09  1  1  2 34 30.0000000  0 10G 4G19G28G 7G32G 8G17G27G20G11
  24366261.888    24366266.409    -1899083.75649  -1435729.40145
  24783618.798    24783621.027    -2027441.02049  -1548389.10645
  20558044.852    20558046.476   -28045540.61449 -21797322.57547
  25150289.407    25150291.395    -1323480.92449  -1005966.61245
  22583145.304    22583149.002   -15021292.43949 -11660074.61846
  22635095.110    22635099.345   -14295342.42049 -11101797.36246
  21788933.655    21788935.543   -19894409.79849 -15473207.22647
  22997671.753    22997674.557   -15620277.06449 -12134745.10046
  22360324.170    22360327.140   -11349554.71149  -8817647.01746
  20946051.300    20946052.794   -24366155.49549 -18912544.33147
 09  1  1  2 35  0.0000000  0 10G 4G19G28G 7G32G 8G17G27G20G11
  24345390.787    24345395.687    -2008758.93049  -1521190.55245
  24799218.079    24799222.885    -1945462.48749  -1484509.80545
  20551907.500    20551909.022   -28077792.75349 -21822454.12147
  25170647.773    25170650.767    -1216489.95949   -922597.12545
  22577676.280    22577680.012   -15050030.38649 -11682467.80246
  22653335.292    22653338.895   -14199495.46049 -11027111.45146
  21778186.965    21778188.570   -19950885.50249 -15517214.25647
  23011802.800    23011805.654   -15546016.68749 -12076879.89446
  22346603.448    22346607.394   -11421653.04549  -8873827.49846
  20958174.008    20958175.515   -24302449.33149 -18862903.17847
 09  1  1  2 35 30.0000000  0 10G 4G19G28G 7G32G 8G17G27G20G11
  24324548.406    24324551.699    -2118289.19049  -1606538.78445
  24814821.676    24814823.708    -1863474.09249  -1420622.83145
  20545853.282    20545854.709   -28109608.08349 -21847245.28947
  25190985.783    25190987.630    -1109616.16749   -839318.93745
  22572303.609    22572306.212   -15078267.61649 -11704470.82646
  22671628.328    22671631.707   -14103362.54649 -10952202.70546
  21767469.504    21767471.827   -20007203.40449 -15561098.33547
  23025985.142    23025987.660   -15471489.42649 -12018806.73346
  22332956.356    22332958.966   -11493375.50249  -8929715.08446
  20970360.751    20970361.898   -24238409.83349 -18813002.28547
 09  1  1  2 36  0.0000000  0  9G 4G19G28G32G 8G17G27G20G11
  24303732.616    24303736.739    -2227672.46049  -1691772.44245
  24830424.765    24830427.063    -1781475.77949  -1356728.11945
  20539882.465    20539883.998   -28140984.83449 -21871694.71647
  22567025.283    22567028.657   -15106002.21849 -11726082.19646
  22689975.657    22689979.150   -14006946.61649 -10877073.45046
  21756783.462    21756784.768   -20063362.70349 -15604858.83247
  23040216.530    23040220.522   -15396697.68249 -11960527.48846
  22319379.895    22319383.288   -11564718.85849  -8985307.28646
  20982609.971    20982611.400   -24174038.48249 -18762842.81047
 09  1  1  2 36 30.0000000  0  9G 4G19G28G32G 8G17G27G20G11
  24282947.225    24282951.587    -2336903.67249  -1776887.61445
  24846031.300    24846034.451    -1699464.56249  -1292823.30645
  20533996.220    20533997.583   -28171917.39449 -21895798.01647
  22561844.060    22561848.075   -15133229.29949 -11747298.09446
  22708377.098    22708381.360   -13910247.90749 -10801723.82746
  21746127.040    21746128.676   -20119359.66349 -15648492.82047
  23054500.022    23054503.572   -15321640.94049 -11902041.74446
  22305876.013    22305879.427   -11635677.10549  -9040599.39346
  20994922.987    20994924.009   -24109334.10149 -18712423.82947
 09  1  1  2 37  0.0000000  0  9G 4G19G28G32G 8G17G27G20G11
  24262189.296    24262192.924    -2445986.12349  -1861886.87745
  24861639.335    24861640.542    -1617445.10549  -1228912.11045
  20528193.707    20528195.390   -28202409.20549 -21919557.88147
  22556759.550    22556763.011   -15159952.34749 -11768121.24046
  22726830.043    22726833.920   -13813274.67449 -10726160.29746
  21735501.166    21735502.956   -20175198.94049 -15692003.95047
  23068832.590    23068835.209   -15246327.01749 -11843355.60346
  22292446.990    22292449.784   -11706252.04349  -9095592.82246
  21007297.670    21007298.783   -24044304.42549 -18661751.37147
 09  1  1  2 37 30.0000000  0  9G 4G19G28G32G 8G17G27G20G11
  24241460.026    24241465.429    -2554917.40049  -1946768.36645
  24877249.379    24877250.731    -1535417.32149  -1164994.39845
  20522475.826    20522477.223   -28232457.89149 -21942972.45247
  22551770.254    22551773.887   -15186169.36749 -11788550.08146
  22745335.332    22745339.358   -13716030.32749 -10650385.51046
  21724905.151    21724907.550   -20230879.84449 -15735391.65547
  23083211.895    23083215.862   -15170758.35649 -11784470.95246
  22279090.127    22279093.226   -11776440.52049  -9150285.10546
  21019733.841    21019735.436   -23978950.21249 -18610826.02247
 09  1  1  2 38  0.0000000  0  9G 4G19G28G32G 8G17G27G20G11
  24220760.856    24220765.023    -2663695.54949  -2031530.53845
  24892860.591    24892862.539    -1453381.20349  -1101070.19345
  20516842.426    20516843.963   -28262061.56649 -21966040.26547
  22546878.271    22546881.586   -15211878.60449 -11808583.23046
  22763891.766    22763895.190   -13618517.88249 -10574401.80946
  21714340.015    21714342.032   -20286401.85049 -15778655.55547
  23097640.966    23097644.198   -15094937.76049 -11725389.98246
  22265807.492    22265810.802   -11846239.15449  -9204673.62046
  21032231.709    21032233.424   -23913273.89249 -18559649.69247
 09  1  1  2 38 30.0000000  0  9G 4G19G28G32G 8G17G27G20G11
  24200091.725    24200095.499    -2772318.80249  -2116172.01845
  24908472.823    24908475.327    -1371336.82849  -1037139.57245
  20511294.047    20511295.492   -28291218.25249 -21988759.77047
  22542082.881    22542086.585   -15237078.66949 -11828219.63946
  22782498.175    22782502.099   -13520740.76149 -10498211.88046
  21703804.739    21703806.679   -20341764.24549 -15821795.08947
  23112115.875    23112118.960   -15018867.98949 -11666114.85446
  22252599.686    22252603.118   -11915645.74549  -9258756.64846
  21044790.735    21044791.950   -23847277.24449 -18508223.74847
 09  1  1  2 39  0.0000000  0  9G 4G19G28G32G 8G17G27G20G11
  24179450.115    24179454.431    -2880784.53949  -2200690.76545
  24924085.655    24924088.785    -1289283.27349   -973201.79345
  20505831.198    20505832.811   -28319925.62949 -22011129.15447
  22537384.264    22537387.839   -15261767.04549 -11847457.32346
  22801154.559    22801157.683   -13422701.45449 -10421817.64746
  21693300.101    21693301.888   -20396965.97849 -15864809.42947
  23126638.481    23126641.438   -14942550.88249 -11606647.02346
  22239467.697    22239470.119   -11984656.30649  -9312531.08146
  21057410.228    21057411.627   -23780961.56849 -18456549.20547
 09  1  1  2 39 30.0000000  0  9G 4G19G28G32G 8G17G27G20G11
  24158840.733    24158843.796    -2989092.10949  -2285086.24145
  24939703.582    24939704.503    -1207221.83149   -909257.85444
  20500454.091    20500455.738   -28348182.72849 -22033147.67047
  22532783.708    22532787.468   -15285943.50849 -11866296.10746
  22819859.390    22819863.213   -13324404.63349 -10345222.72846
  21682826.282    21682828.071   -20452007.81449 -15907699.17347
  23141207.375    23141211.096   -14865990.56549 -11546989.66446
  22226411.346    22226414.380   -12053269.08749  -9365995.55646
  21070089.531    21070091.094   -23714330.09449 -18404628.58647
 09  1  1  2 40  0.0000000  0  9G 4G19G28G32G 8G17G27G20G11
  24138260.160    24138264.077    -3097239.31549  -2369356.77045
  24955321.420    24955323.935    -1125152.43049   -845307.75145
  20495163.054    20495164.517   -28375987.47149 -22054813.70247
  22528280.946    22528284.258   -15309606.21949 -11884734.56446
  22838613.327    22838616.921   -13225853.61149 -10268429.76046
  21672382.922    21672384.529   -20506888.89049 -15950463.64447
  23155822.138    23155825.786   -14789189.48749 -11487144.69646
  22213431.232    22213433.983   -12121480.69749  -9419147.43546
  21082829.211    21082830.310   -23647384.32249 -18352463.07147
 09  1  1  2 40 30.0000000  0  9G 4G19G28G32G 8G17G27G20G11
  24117710.676    24117714.639    -3205223.02849  -2453499.89445
  24970939.258    24970940.232    -1043073.94749   -781350.55744
  20489958.687    20489960.149   -28403336.74649 -22076124.83447
  22523876.155    22523879.836   -15332752.57349 -11902770.66346
  22857414.331    22857418.969   -13127050.73549 -10191440.54846
  21661970.110    21661972.004   -20561607.44449 -15993101.49047
  23170482.589    23170486.556   -14712149.02049 -11427113.20346
  22200527.894    22200531.189   -12189287.40849  -9471983.80546
  21095627.861    21095629.353   -23580125.48549 -18300053.60947
 09  1  1  2 41  0.0000000  0  9G 4G19G28G32G 8G17G27G20G11
  24097193.330    24097197.903    -3313042.98149  -2537515.43445
  24986559.045    24986560.106     -960987.93849   -717387.48744
  20484840.960    20484842.424   -28430230.38749 -22097080.92747
  22519570.536    22519573.501   -15355382.52649 -11920404.36646
  22876262.403    22876266.923   -13028000.48649 -10114258.56046
  21651588.087    21651590.302   -20616164.62049 -16035613.58347
  23185187.858    23185191.343   -14634873.52249 -11366898.55946
  22187701.814    22187704.335   -12256687.26549  -9524503.14646
  21108485.929    21108487.204   -23512556.98149 -18247402.84447
 09  1  1  2 41 30.0000000  0  9G 4G19G28G32G 8G17G27G20G11
  24076708.721    24076711.605    -3420696.32349  -2621401.15045
  25002180.511    25002185.897     -878892.89849   -653417.38344
  20479810.562    20479811.870   -28456665.36549 -22117679.61547
  22515362.019    22515366.367   -15377493.49449 -11937633.66546
  22895158.142    22895162.286   -12928704.89149 -10036885.40146
  21641237.603    21641239.492   -20670558.80649 -16077998.67447
  23199937.527    23199940.392   -14557364.68349 -11306502.10246
  22174954.219    22174957.273   -12323676.80649  -9576702.77046
  21121402.757    21121403.838   -23444679.53949 -18194511.34647
 09  1  1  2 42  0.0000000  0  9G 4G19G28G32G 8G17G27G20G11
  24056254.751    24056257.684    -3528184.21049  -2705157.92445
  25017804.704    25017807.525     -796792.18349   -589442.87044
  20474867.074    20474868.878   -28482642.95449 -22137921.89247
  22511252.944    22511256.755   -15399087.19649 -11954459.88946
  22914099.089    22914102.886   -12829170.55149  -9959326.20146
  21630917.008    21630918.934   -20724792.65849 -16120258.81747
  23214730.367    23214733.003   -14479628.34849 -11245928.35546
  22162284.480    22162288.243   -12390256.50449  -9628583.03346
  21134377.175    21134378.527   -23376498.27349 -18141383.09747
 09  1  1  2 42 30.0000000  0  9G 4G19G28G32G 8G17G27G20G11
  24035833.729    24035835.543    -3635502.53549  -2788782.57845
  25033431.536    25033432.577     -714683.39249   -525462.02544
  20470011.456    20470013.352   -28508158.92849 -22157804.47447
  22507243.460    22507246.325   -15420159.83549 -11970880.09546
  22933085.156    22933088.876   -12729398.71449  -9881581.95946
  21620627.621    21620629.808   -20778863.17449 -16162391.68947
  23229566.736    23229569.892   -14401664.97749 -11185177.70646
  22149693.826    22149697.163   -12456420.55349  -9680139.40746
  21147409.213    21147411.322   -23308012.65349 -18088017.69347
 09  1  1  2 43  0.0000000  0  9G 4G19G28G32G 8G17G27G20G11
  24015443.674    24015446.211    -3742649.30349  -2872273.54745
  25049057.978    25049058.747     -632566.76349   -461475.09644
  20465244.216    20465245.699   -28533211.58049 -22177326.02347
  22503332.397    22503336.118   -15440710.06449 -11986893.22746
  22952115.861    22952119.179   -12629392.76149  -9803655.26946
  21610369.443    21610371.413   -20832769.95749 -16204396.97747
  23244444.266    23244447.926   -14323477.41949 -11124252.37246
  22137182.497    22137186.067   -12522166.00249  -9731369.60746
  21160499.171    21160500.982   -23239224.87749 -18034416.84447
 09  1  1  2 43 30.0000000  0  9G 4G19G28G32G 8G17G27G20G11
  23995087.497    23995090.779    -3849623.02049  -2955629.68045
  25064684.210    25064686.981     -550442.26049   -397482.00644
  20460565.385    20460567.063   -28557799.48049 -22196485.42947
  22499521.645    22499525.406   -15460736.78049 -12002498.42346
  22971189.616    22971192.920   -12529156.50949  -9725549.13146
  21600142.682    21600144.646   -20886512.85349 -16246274.56647
  23259365.356    23259368.746   -14245068.78349 -11063154.75646
  22124751.753    22124755.077   -12587490.76249  -9782272.01146
  21173646.240    21173647.664   -23170137.12949 -17980582.24647
 09  1  1  2 44  0.0000000  0  9G 4G19G28G32G 8G17G27G20G11
  23974762.797    23974766.687    -3956422.62049  -3038850.12845
  25080312.091    25080317.507     -468310.52249   -333483.26844
  20455974.993    20455976.703   -28581921.21049 -22215281.58747
  22495810.125    22495814.382   -15480239.23649 -12017695.12046
  22990307.801    22990310.714   -12428693.70049  -9647266.45746
  21589946.831    21589948.797   -20940091.67549 -16288024.29947
  23274327.548    23274330.186   -14166442.30649 -11001887.40546
  22112401.593    22112404.756   -12652392.63949  -9832844.88546
  21186849.729    21186851.323   -23100752.09049 -17926515.99047
 09  1  1  2 44 30.0000000  0  9G 4G19G28G32G 8G17G27G20G11
  23954474.193    23954476.789    -4063045.37549  -3121932.77145
  25095943.150    25095949.483     -386171.36448   -269478.73744
  20451473.969    20451475.555   -28605574.69949 -22233712.88447
  22492199.394    22492202.537   -15499215.58349 -12032481.85146
  23009468.646    23009470.861   -12328007.05349  -9568809.34646
  21579782.877    21579784.279   -20993505.76649 -16329645.66847
  23289330.812    23289333.918   -14087600.42649 -10940452.20846
  22100132.527    22100135.763   -12716868.18749  -9883085.56846
  21200109.490    21200111.033   -23031071.00249 -17872219.05147
 09  1  1  2 45  0.0000000  0  9G 4G19G28G32G 8G17G27G20G11
  23934217.996    23934220.551    -4169489.81149  -3204876.46645
  25111573.100    25111578.482     -304024.51748   -205468.23944
  20447062.523    20447063.881   -28628758.13749 -22251777.91547
  22488688.045    22488692.245   -15517664.55549 -12046857.65746
  23028669.964    23028672.949   -12227099.99649  -9490180.50846
  21569650.012    21569651.403   -21046754.08249 -16371137.85347
  23304374.307    23304377.645   -14008545.60249 -10878851.06845
  22087944.314    22087948.546   -12780914.26349  -9932991.60046
  21213425.461    21213426.954   -22961096.15849 -17817693.21147
 09  1  1  2 45 30.0000000  0  9G 4G19G28G32G 8G17G27G20G11
  23913997.324    23914000.045    -4275755.38149  -3287680.79245
  25127209.615    25127212.616     -221871.33448   -141452.80744
  20442740.056    20442741.566   -28651471.22249 -22269476.43247
  22485278.056    22485281.790   -15535586.33249 -12060822.65446
  23047913.342    23047916.580   -12125977.31749  -9411383.64446
  21559548.535    21559550.470   -21099837.53849 -16412501.56947
  23319457.555    23319461.406   -13929282.48249 -10817087.62245
  22075839.504    22075841.720   -12844530.01349  -9982562.31346
  21226796.654    21226798.033   -22890830.89949 -17762941.07847
 09  1  1  2 46  0.0000000  0  9G 4G19G28G32G 8G17G27G20G11
  23893808.281    23893812.630    -4381839.35649  -3370343.59045
  25142842.532    25142848.208     -139711.10448    -77431.85444
  20438507.795    20438509.698   -28673711.12649 -22286806.22647
  22481968.587    22481972.210   -15552978.53749 -12074375.00646
  23067195.633    23067198.526   -12024641.59549  -9332420.78046
  21549478.357    21549480.361   -21152755.17449 -16453736.08147
  23334579.956    23334583.975   -13849812.84849 -10755163.25945
  22063815.908    22063819.318   -12907711.45049 -10031794.59246
  21240222.380    21240224.453   -22820276.28949 -17707963.47547
 09  1  1  2 46 30.0000000  0  9G 4G19G28G32G 8G17G27G20G11
  23873656.711    23873659.925    -4487739.94749  -3452863.49145
  25158480.187    25158480.155      -57543.66948    -13405.29444
  20434366.253    20434368.112   -28695476.34749 -22303766.13747
  22478759.788    22478763.425   -15569840.01849 -12087513.80446
  23086519.355    23086522.565   -11923095.91249  -9253294.30846
  21539440.436    21539442.159   -21205506.17749 -16494840.75347
  23349741.570    23349744.907   -13770139.49349 -10693080.15945
  22051876.224    22051879.375   -12970455.76749 -10080686.26346
  21253703.447    21253704.951   -22749433.92649 -17652761.64147
 09  1  1  2 47  0.0000000  0  9G 4G19G28G32G 8G17G27G20G11
  23853539.468    23853544.028    -4593455.70449  -3535239.38545
  25174115.173    25174117.216       24630.58548     50626.58544
  20430315.007    20430316.461   -28716765.58249 -22320355.15847
  22475652.619    22475655.488   -15586170.07349 -12100238.51346
  23105882.380    23105885.753   -11821344.77449  -9174007.73346
  21529433.723    21529435.855   -21258090.35149 -16535815.43047
  23364941.288    23364944.227   -13690265.42249 -10630840.66245
  22040019.882    22040023.066   -13032760.82749 -10129235.65846
  21267238.747    21267239.999   -22678306.35949 -17597337.56747
 09  1  1  2 47 30.0000000  0  9G 4G19G28G32G 8G17G27G20G11
  23833459.010    23833461.774    -4698984.74649  -3617469.78145
  25189753.726    25189757.241      106811.53749    114663.69244
  20426354.419    20426356.275   -28737577.19849 -22336572.00947
  22472645.971    22472649.483   -15601967.48949 -12112548.17946
  23125283.539    23125287.361   -11719391.08049  -9094563.33146
  21519459.029    21519461.420   -21310507.30949 -16576659.81047
  23380179.019    23380181.765   -13610193.55949 -10568447.03545
  22028247.991    22028251.488   -13094623.74949 -10177440.53446
  21280827.949    21280829.110   -22606895.80449 -17541692.99547
 09  1  1  2 48  0.0000000  0  9G 4G19G28G32G 8G17G27G20G11
  23813412.428    23813415.595    -4804325.95049  -3699553.80145
  25205393.989    25205398.046      188998.86148    178705.79744
  20422485.597    20422487.232   -28757909.73949 -22352415.55947
  22469742.001    22469744.777   -15617231.44549 -12124442.17146
  23144724.211    23144726.509   -11617238.36249  -9014963.83646
  21509516.292    21509518.094   -21362756.72649 -16617373.63347
  23395452.755    23395455.927   -13529927.10149 -10505901.77745
  22016560.342    22016563.613   -13156042.30149 -10225299.14547
  21294470.215    21294471.663   -22535204.18949 -17485829.41347
 09  1  1  2 48 30.0000000  0  9G 4G19G28G32G 8G17G27G20G11
  23793403.350    23793406.071    -4909477.67249  -3781490.16245
  25221037.549    25221037.814      271192.52548    242752.84344
  20418707.883    20418709.489   -28777761.91649 -22367884.79747
  22466938.672    22466941.774   -15631961.04949 -12135919.78646
  23164199.239    23164202.230   -11514890.56149  -8935212.34445
  21499605.603    21499607.530   -21414838.43749 -16657956.77647
  23410763.426    23410766.981   -13449469.25049 -10443207.39245
  22004957.925    22004960.857   -13217013.99549 -10272809.55447
  21308165.424    21308166.810   -22463234.06649 -17429748.81647
 09  1  1  2 49  0.0000000  0  9G 4G19G28G32G 8G17G27G20G11
  23773428.838    23773433.444    -5014437.75149  -3863277.19245
  25236677.122    25236679.356      353392.62149    306804.86944
  20415021.874    20415023.506   -28797131.65249 -22382978.11147
  22464237.422    22464241.120   -15646154.85849 -12146979.90446
  23183710.391    23183715.104   -11412350.59649  -8855311.11345
  21489726.902    21489728.709   -21466751.43949 -16698408.45947
  23426109.802    23426113.490   -13368822.24049 -10380365.60445
  21993440.918    21993443.744   -13277535.89349 -10319969.47047
  21321913.816    21321914.862   -22390986.91549 -17373452.34347
 09  1  1  2 49 30.0000000  0  9G 4G19G28G32G 8G17G27G20G11
  23753492.849    23753496.611    -5119206.55049  -3944915.18445
  25252320.113    25252323.495      435597.06049    370860.30844
  20411427.663    20411429.249   -28816019.55949 -22397695.97047
  22461637.982    22461641.819   -15659814.06449 -12157623.44146
  23203258.388    23203264.027   -11309624.06449  -8775264.48145
  21479880.098    21479881.830   -21518497.23149 -16738729.84747
  23441491.613    23441495.881   -13287991.21549 -10317380.41945
  21982009.501    21982012.873   -13337607.33149 -10366778.37647
  21335713.953    21335715.220   -22318466.81049 -17316943.17847
 09  1  1  2 50  0.0000000  0  9G 4G19G28G32G 8G17G27G20G11
  23733593.105    23733596.387    -5223779.82949  -4026400.83545
  25267966.251    25267967.459      517808.46349    434921.15045
  20407925.907    20407927.529   -28834421.57049 -22412035.20147
  22459141.520    22459145.189   -15672934.78049 -12167847.37546
  23222842.541    23222846.543   -11206711.76549  -8695073.10545
  21470065.523    21470067.155   -21570072.97949 -16778918.71547
  23456907.511    23456912.635   -13206976.43849 -10254252.05045
  21970665.145    21970668.588   -13397223.07249 -10413232.19547
  21349566.043    21349567.457   -22245673.51949 -17260221.15247
 09  1  1  2 50 30.0000000  0  9G 4G19G28G32G 8G17G27G20G11
  23713730.566    23713734.987    -5328156.11849  -4107732.98845
  25283611.820    25283614.072      600026.59649    498987.26545
  20404516.907    20404518.854   -28852335.97949 -22425994.47947
  22456747.587    22456750.609   -15685516.55949 -12177651.37846
  23242461.139    23242464.882   -11103616.98649  -8614739.54445
  21460283.595    21460284.952   -21621478.30949 -16818974.81947
  23472357.945    23472362.773   -13125781.12949 -10190983.00945
  21959407.938    21959411.402   -13456380.73749 -10459329.06747
  21363469.818    21363471.164   -22172608.96049 -17203287.74947
 09  1  1  2 51  0.0000000  0  9G 4G19G28G32G 8G17G27G20G11
  23693907.449    23693910.694    -5432334.25249  -4188910.74245
  25299257.389    25299260.465      682250.89249    563058.19145
  20401200.663    20401202.448   -28869762.36249 -22439573.48347
  22454456.213    22454458.984   -15697558.85749 -12187034.99246
  23262114.483    23262117.363   -11000344.47749  -8534267.49645
  21450533.685    21450535.098   -21672713.26549 -16858898.13847
  23487844.024    23487847.196   -13044408.72449 -10127575.97245
  21948238.241    21948240.921   -13515078.62349 -10505067.67447
  21377424.737    21377426.192   -22099275.95849 -17146145.17047
 09  1  1  2 51 30.0000000  0  9G 4G19G28G32G 8G17G27G20G11
  23674121.237    23674123.924    -5536313.09949  -4269933.20945
  25314904.486    25314906.805      764480.90249    627133.53845
  20397977.894    20397979.495   -28886699.35849 -22452771.14947
  22452267.189    22452269.926   -15709061.12049 -12195997.79746
  23281798.706    23281803.085   -10896897.51849  -8453659.51745
  21440816.452    21440818.136   -21723777.69349 -16898688.58547
  23503362.151    23503365.648   -12962862.51549 -10064033.51545
  21937155.933    21937159.240   -13573314.19049 -10550446.03447
  21391429.811    21391431.371   -22025676.68949 -17088795.10647
 09  1  1  2 52  0.0000000  0  9G 4G19G28G32G 8G17G27G20G11
  23654372.229    23654374.786    -5640090.85649  -4350798.98245
  25330554.852    25330555.081      846716.38949    691213.19445
  20394848.180    20394849.963   -28903145.52949 -22465586.35847
  22450181.143    22450184.692   -15720022.59049 -12204539.19946
  23301517.045    23301520.560   -10793279.41649  -8372918.18545
  21431131.536    21431133.477   -21774671.14949 -16938345.82547
  23518911.996    23518915.633   -12881145.22349 -10000357.75445
  21926162.244    21926165.724   -13631085.57549 -10595462.69247
  21405485.611    21405487.638   -21951813.26449 -17031239.20547
 09  1  1  2 52 30.0000000  0  9G 4G19G28G32G 8G17G27G20G11
  23634663.063    23634665.148    -5743665.99049  -4431506.86545
  25346203.928    25346206.949      928957.18049    755296.95744
  20391812.302    20391813.821   -28919099.50049 -22478018.03447
  22448198.046    22448201.570   -15730442.29049 -12212658.43646
  23321267.462    23321269.654   -10689494.02449  -8292046.47845
  21421479.628    21421481.454   -21825392.96849 -16977869.32147
  23534494.578    23534497.531   -12799259.68049  -9936550.87645
  21915257.983    21915261.456   -13688389.70549 -10640115.25047
  21419591.355    21419592.874   -21877687.61549 -16973478.97147
 09  1  1  2 53  0.0000000  0  9G 4G19G28G32G 8G17G27G20G11
  23614991.911    23614994.105    -5847036.29549  -4512055.17545
  25361855.013    25361858.995     1011204.02248    819385.43444
  20388870.259    20388872.116   -28934559.31949 -22490064.65947
  22446318.947    22446322.802   -15740318.93949 -12220354.52346
  23341047.619    23341051.377   -10585544.37949  -8211046.80445
  21411860.278    21411862.061   -21875942.30149 -17017258.41047
  23550106.960    23550111.145   -12717208.79949  -9872615.14645
  21904442.760    21904445.954   -13745223.53549 -10684401.34447
  21433746.476    21433748.239   -21803301.47149 -16915515.75747
 09  1  1  2 53 30.0000000  0  8G 4G28G32G 8G17G27G20G11
  23595360.002    23595362.604    -5950200.06049  -4592442.52945
  20386022.830    20386024.423   -28949523.74949 -22501725.26347
  22444542.736    22444546.446   -15749651.77149 -12227626.83846
  23360859.613    23360863.552   -10481433.85749  -8129921.76445
  21402273.874    21402276.083   -21926318.63449 -17056512.69247
  23565751.959    23565756.435   -12634995.45649  -9808552.84245
  21893717.565    21893720.590   -13801585.35549 -10728319.63347
  21447951.002    21447952.781   -21728656.72949 -16857351.04247
 09  1  1  2 54  0.0000000  0  8G 4G28G32G 8G17G27G20G11
  23575768.205    23575771.360    -6053155.96849  -4672667.91745
  20383269.626    20383271.218   -28963991.50949 -22512998.85347
  22442869.984    22442873.367   -15758440.36549 -12234475.08246
  23380699.848    23380703.969   -10377166.20649  -8048674.27345
  21392720.927    21392722.576   -21976521.89549 -17095632.12647
  23581426.998    23581431.691   -12552622.65349  -9744366.28045
  21883082.277    21883085.367   -13857472.61549 -10771868.14947
  21462204.155    21462205.787   -21653755.76149 -16798986.67047
 09  1  1  2 54 30.0000000  0  8G 4G28G32G 8G17G27G20G11
  23556216.221    23556220.055    -6155902.54049  -4752730.20145
  20380611.276    20380613.013   -28977961.14749 -22523884.29047
  22441301.950    22441304.777   -15766683.91149 -12240898.61146
  23400571.801    23400574.785   -10272744.23649  -7967306.53845
  21383200.538    21383202.404   -22026551.65049 -17134616.34247
  23597131.356    23597136.096   -12470093.51649  -9680057.91345
  21872537.947    21872541.240   -13912883.04449 -10815045.09147
  21476505.874    21476507.455   -21578600.67349 -16740424.27747
 09  1  1  2 55  0.0000000  0  8G 4G28G32G 8G17G27G20G11
  23536702.910    23536707.589    -6258438.25049  -4832628.18645
  20378048.201    20378049.730   -28991431.37749 -22534380.57547
  22439836.804    22439840.462   -15774381.59649 -12246896.77846
  23420471.395    23420474.939   -10168171.95949  -7885821.68245
  21373713.636    21373715.162   -22076407.06549 -17173464.70847
  23612866.143    23612870.518   -12387410.95049  -9615629.97845
  21862085.323    21862088.614   -13967813.83949 -10857848.29647
  21490855.171    21490857.060   -21503193.47549 -16681665.44047
 09  1  1  2 55 30.0000000  0  8G 4G28G32G 8G17G27G20G11
  23517232.169    23517235.840    -6360761.69049  -4912360.75145
  20375579.890    20375581.762   -29004401.39849 -22544487.08847
  22438475.477    22438479.423   -15781533.32749 -12252469.54146
  23440399.739    23440401.399   -10063453.05949  -7804222.59545
  21364259.321    21364261.039   -22126088.25249 -17212177.33047
  23628629.620    23628633.399   -12304578.44149  -9551085.20745
  21851723.776    21851727.354   -14022263.32249 -10900276.45347
  21505252.434    21505254.310   -21427536.82449 -16622712.22047
 09  1  1  2 56  0.0000000  0  8G 4G28G32G 8G17G27G20G11
  23497801.570    23497805.152    -6462870.94349  -4991926.43445
  20373207.482    20373209.038   -29016869.34749 -22554202.38047
  22437219.226    22437222.921   -15788137.83449 -12257615.89646
  23460354.974    23460357.089    -9958590.44349  -7722511.51245
  21354838.613    21354840.429   -22175594.19249 -17250753.38647
  23644419.719    23644424.037   -12221598.27249  -9486425.37045
  21841455.045    21841458.151   -14076228.72249 -10942327.40547
  21519696.494    21519698.266   -21351632.03349 -16563565.64947
 09  1  1  2 56 30.0000000  0  8G 4G28G32G 8G17G27G20G11
  23478412.643    23478415.157    -6564764.56749  -5071324.09145
  20370930.468    20370932.250   -29028834.21749 -22563525.66647
  22436067.034    22436070.083   -15794194.88349 -12262335.65646
  23480335.332    23480338.354    -9853587.88449  -7640691.38045
  21345451.541    21345453.331   -22224924.65249 -17289192.69947
  23660238.358    23660242.108   -12138473.78349  -9421653.08345
  21831277.751    21831280.787   -14129707.87949 -10983999.46447
  21534187.262    21534189.069   -21275481.43849 -16504227.53647
 09  1  1  2 57  0.0000000  0  8G 4G28G32G 8G17G27G20G11
  23459063.408    23459066.528    -6666442.85049  -5150553.94345
  20368749.388    20368751.109   -29040296.42049 -22572457.27247
  22435017.820    22435021.580   -15799705.42749 -12266629.57246
  23500342.132    23500344.963    -9748450.81249  -7558766.42645
  21336097.207    21336099.296   -22274080.97049 -17327496.31947
  23676082.329    23676086.368   -12055209.52849  -9356771.87345
  21821193.782    21821196.702   -14182700.06949 -11025292.06047
  21548724.738    21548726.093   -21199088.68449 -16444700.73747
 09  1  1  2 57 30.0000000  0  8G 4G28G32G 8G17G27G20G11
  23439756.384    23439759.976    -6767901.68149  -5229612.79645
  20366664.542    20366666.296   -29051252.14549 -22580994.22147
  22434073.234    22434077.129   -15804666.41349 -12270495.26846
  23520373.154    23520378.300    -9643179.98649  -7476737.24645
  21326776.690    21326778.618   -22323059.87449 -17365661.69947
  23691953.852    23691957.060   -11971805.92249  -9291782.08745
  21811203.108    21811206.166   -14235200.71549 -11066201.64547
  21563307.783    21563309.287   -21122453.13249 -16384984.73447
 09  1  1  2 58  0.0000000  0  8G 4G28G32G 8G17G27G20G11
  23420492.201    23420495.307    -6869139.42549  -5308499.37145
  20364676.378    20364678.067   -29061699.97749 -22589135.40047
  22433234.385    22433237.750   -15809077.18849 -12273932.23346
  23540430.529    23540435.090    -9537778.73949  -7394606.43845
  21317490.139    21317492.135   -22371860.71349 -17403688.33547
  23707850.826    23707853.739   -11888266.07849  -9226686.15645
  21801306.420    21801309.554   -14287207.43949 -11106726.35147
  21577937.025    21577938.162   -21045577.17149 -16325081.40247
 09  1  1  2 58 30.0000000  0  8G 4G28G32G 8G17G27G20G11
  23401269.089    23401272.104    -6970154.63849  -5387212.54545
  20362785.107    20362786.829   -29071638.93849 -22596880.05247
  22432499.354    22432503.580   -15812937.36949 -12276940.16146
  23560512.996    23560516.864    -9432250.78849  -7312376.90545
  21308237.614    21308239.497   -22420483.15349 -17441575.94847
  23723774.153    23723776.510   -11804592.93049  -9161486.35345
  21791504.226    21791506.875   -14338718.10949 -11146864.52047
  21592611.206    21592612.976   -20968462.70249 -16264992.21147
 09  1  1  2 59  0.0000000  0  8G 4G28G32G 8G17G27G20G11
  23382089.266    23382091.610    -7070946.40049  -5465751.61145
  20360990.729    20360992.344   -29081068.58949 -22604227.84347
  22431869.850    22431873.087   -15816247.17049 -12279519.21046
  23580617.288    23580621.347    -9326600.43949  -7230052.00345
  21299019.026    21299020.834   -22468927.74649 -17479324.97847
  23739720.234    23739723.897   -11720790.34049  -9096185.68845
  21781797.365    21781799.805   -14389731.15349 -11186614.92847
  21607330.686    21607332.456   -20891112.52449 -16204719.34847
 09  1  1  2 59 30.0000000  0  8G 4G28G32G 8G17G27G20G11
  23362952.525    23362955.294    -7171513.13749  -5544115.31645
  20359293.335    20359295.254   -29089987.30249 -22611177.50447
  22431345.153    22431348.592   -15819005.58649 -12281668.62846
  23600743.825    23600748.163    -9220830.46349  -7147633.88845
  21289834.734    21289836.454   -22517193.32549 -17516934.51747
  23755692.666    23755694.792   -11636860.87749  -9030786.13945
  21772184.880    21772187.823   -14440243.96649 -11225975.54947
  21622094.416    21622096.186   -20813528.30649 -16144264.12747
 09  1  1  3  0  0.0000000  0  8G 4G28G32G 8G17G27G20G11
  23343857.903    23343859.977    -7271852.80149  -5622302.07245
  20357693.822    20357695.631   -29098393.85149 -22617728.08547
  22430925.294    22430928.957   -15821212.25449 -12283388.09846
  23620892.786    23620898.194    -9114944.06649  -7065125.05745
  21280683.779    21280686.144   -22565279.27149 -17554404.07547
  23771686.894    23771690.924   -11552807.47349  -8965290.02145
  21762668.118    21762671.248   -14490254.39549 -11264944.70147
  21636902.064    21636904.116   -20735712.05349 -16083628.09647
 09  1  1  3  0 30.0000000  0  8G 4G28G32G 8G17G27G20G11
  23324806.872    23324810.004    -7371964.19449  -5700310.95845
  20356191.862    20356193.402   -29106287.18049 -22623878.75347
  22430610.002    22430613.570   -15822866.78749 -12284677.34046
  23641065.221    23641068.904    -9008944.96349  -6982528.39445
  21271567.900    21271569.630   -22613185.41549 -17591733.53847
  23787704.025    23787707.326   -11468633.01449  -8899699.56845
  21753246.631    21753250.664   -14539760.28549 -11303520.71047
  21651754.172    21651755.680   -20657665.68749 -16022812.76347
 09  1  1  3  1  0.0000000  0  8G 4G28G32G 8G17G27G20G11
  23305800.600    23305802.510    -7471846.24149  -5778141.14045
  20354787.664    20354789.153   -29113666.57349 -22629628.94247
  22430401.166    22430404.358   -15823969.08049 -12285536.27246
  23661256.753    23661261.212    -8902837.01249  -6899846.91745
  21262485.717    21262487.465   -22660911.09549 -17628922.37447
  23803744.630    23803748.108   -11384340.87749  -8834017.43245
  21743922.756    21743925.901   -14588759.91049 -11341702.23047
  21666648.971    21666650.529   -20579391.69649 -15961820.05347
 09  1  1  3  1 30.0000000  0  8G 4G28G32G 8G17G27G20G11
  23286837.738    23286840.998    -7571496.80549  -5855790.93245
  20353481.408    20353483.156   -29120530.43149 -22634977.41147
  22430295.819    22430299.538   -15824518.31949 -12285964.24746
  23681468.041    23681472.269    -8796623.03849  -6817082.84045
  21253438.131    21253440.114   -22708455.56049 -17665969.99247
  23819806.791    23819809.808   -11299933.61849  -8768245.60045
  21734695.413    21734698.844   -14637250.50749 -11379487.10347
  21681587.449    21681588.610   -20500891.35849 -15900650.96447
 09  1  1  3  2  0.0000000  0  8G 4G28G32G 8G17G27G20G11
  23267919.455    23267922.056    -7670914.43049  -5933259.19745
  20352273.634    20352275.190   -29126877.26649 -22639923.00647
  22430297.378    22430300.172   -15824514.06749 -12285960.92946
  23701699.115    23701704.893    -8690306.48849  -6734238.81845
  21244425.620    21244427.474   -22755818.20349 -17702875.94847
  23835890.626    23835894.067   -11215414.04149  -8702386.22745
  21725565.534    21725568.476   -14685229.93349 -11416873.66347
  21696568.168    21696570.009   -20422166.58449 -15839306.99847
 09  1  1  3  2 30.0000000  0  8G 4G28G32G 8G17G27G20G11
  23249045.751    23249048.928    -7770097.90749  -6010545.01445
  20351164.492    20351166.036   -29132706.61449 -22644465.36547
  22430403.025    22430406.167   -15823956.25349 -12285526.25746
  23721949.976    23721954.568    -8583890.79349  -6651317.54045
  21235447.286    21235449.254   -22802998.76649 -17739640.02147
  23851994.698    23851998.171   -11130785.68249  -8636442.09545
  21716533.207    21716535.966   -14732696.36249 -11453860.49447
  21711591.068    21711593.065   -20343220.10749 -15777790.28447
 09  1  1  3  3  0.0000000  0  8G 4G28G32G 8G17G27G20G11
  23230216.176    23230218.931    -7869046.00049  -6087647.40845
  20350153.712    20350155.619   -29138017.56949 -22648603.77247
  22430614.469    22430617.707   -15822844.76949 -12284660.15146
  23742218.704    23742223.356    -8477379.96149  -6568322.13645
  21226503.907    21226505.708   -22849996.88149 -17776261.92147
  23868118.166    23868121.808   -11046051.34749  -8570415.39845
  21707598.672    21707601.234   -14779647.82049 -11490446.04847
  21726656.209    21726657.437   -20264053.75149 -15716102.23047
 09  1  1  3  3 30.0000000  0  8G 4G28G32G 8G17G27G20G11
  23211431.750    23211435.127    -7967756.23449  -6164564.45245
  20349242.253    20349244.004   -29142808.47849 -22652336.94847
  22430931.499    22430935.011   -15821178.56649 -12283361.79446
  23762504.670    23762509.023    -8370776.35649  -6485254.43245
  21217595.304    21217597.523   -22896811.04549 -17812740.48347
  23884263.548    23884267.975   -10961213.29149  -8504307.86445
  21698762.589    21698765.119   -14826081.71849 -11526628.30947
  21741762.361    21741763.824   -20184668.79849 -15654243.83947
 09  1  1  3  4  0.0000000  0  8G 4G28G32G 8G17G27G20G11
  23192693.133    23192696.378    -8066228.09349  -6241295.76345
  20348429.306    20348431.077   -29147078.82949 -22655664.49147
  22431353.967    22431357.768   -15818958.18349 -12281631.61846
  23782807.725    23782812.660    -8264084.27949  -6402117.80045
  21208721.717    21208723.716   -22943441.47249 -17849075.87347
  23900425.989    23900431.595   -10876275.35249  -8438122.49745
  21690024.988    21690028.103   -14871996.47549 -11562406.03747
  21756909.885    21756911.451   -20105068.13349 -15592217.35747
 09  1  1  3  4 30.0000000  0  8G 4G28G32G 8G17G27G20G11
  23174001.343    23174003.347    -8164459.71649  -6317839.85945
  20347716.159    20347717.795   -29150827.19949 -22658585.30147
  22431882.501    22431885.765   -15816182.98249 -12279469.09946
  23803127.688    23803130.216    -8157306.70949  -6318914.55345
  21199883.656    21199885.318   -22989887.58349 -17885267.63747
  23916607.377    23916612.811   -10791240.16449  -8371861.35445
  21681387.038    21681389.866   -14917390.00949 -11597777.61447
  21772098.000    21772099.306   -20025253.09049 -15530023.82847
 09  1  1  3  5  0.0000000  0  8G 4G28G32G 8G17G27G20G11
  23155353.412    23155356.316    -8262451.39149  -6394196.98146
  20347102.094    20347103.845   -29154054.36549 -22661099.97747
  22432514.913    22432518.671   -15812854.29349 -12276875.29646
  23823460.601    23823465.062    -8050448.52449  -6235648.47145
  21191079.861    21191081.898   -23036150.18749 -17921316.40647
  23932807.472    23932811.617   -10706112.54049  -8305528.18745
  21672848.079    21672851.083   -14962261.92149 -11632742.73547
  21787326.438    21787328.141   -19945227.29249 -15467666.07047
 09  1  1  3  5 30.0000000  0  8G 4G28G32G 8G17G27G20G11
  23136752.699    23136754.924    -8360198.89749  -6470363.84746
  20346588.040    20346589.573   -29156756.56649 -22663205.59947
  22433254.531    22433258.382   -15808969.30649 -12273848.02746
  23843811.173    23843816.120    -7943510.47349  -6152320.16045
  21182312.250    21182314.222   -23082226.03449 -17957219.66647
  23949024.415    23949030.044   -10620892.65049  -8239123.12045
  21664409.371    21664412.412   -15006607.36349 -11667297.61647
  21802595.257    21802597.013   -19864990.09749 -15405143.59847
 09  1  1  3  6  0.0000000  0  8G 4G28G32G 8G17G27G20G11
  23118199.833    23118202.919    -8457693.57049  -6546333.71146
  20346175.046    20346176.681   -29158926.00249 -22664896.07147
  22434101.595    22434105.322   -15804520.81749 -12270381.65746
  23864176.824    23864181.400    -7836488.93849  -6068926.79845
  21173581.305    21173583.194   -23128107.59049 -17992971.52147
  23965259.886    23965263.494   -10535576.07849  -8172642.71945
  21656072.713    21656075.814   -15050417.34649 -11701435.24947
  21817905.089    21817906.905   -19784536.59049 -15342452.54646
 09  1  1  3  6 30.0000000  0  8G 4G28G32G 8G17G27G20G11
  23099693.375    23099696.145    -8554945.81149  -6622114.67446
  20345861.733    20345863.275   -29160573.05449 -22666179.49247
  22435052.806    22435056.540   -15799520.20049 -12266485.06046
  23884555.816    23884559.953    -7729398.70649  -5985479.91845
  21164885.255    21164887.201   -23173805.50649 -18028580.27947
  23981511.035    23981514.681   -10450177.36049  -8106098.32045
  21647835.915    21647839.104   -15093701.42149 -11735163.08847
  21833253.113    21833254.574   -19703880.03249 -15279603.28846
 09  1  1  3  7  0.0000000  0  8G 4G28G32G 8G17G27G20G11
  23081234.254    23081235.537    -8651952.26449  -6697704.10646
  20345647.921    20345649.922   -29161695.04949 -22667053.77947
  22436109.904    22436113.776   -15793965.49249 -12262156.70846
  23904947.129    23904951.042    -7622241.65349  -5901980.96645
  21156224.431    21156226.278   -23219317.64849 -18064044.26947
  23997777.354    23997780.863   -10364697.77349  -8039490.88245
  21639699.997    21639702.755   -15136455.87049 -11768478.22347
  21848640.291    21848642.182   -19623020.72849 -15216596.04246
 09  1  1  3  7 30.0000000  0  8G 4G28G32G 8G17G27G20G11
  23062820.522    23062824.650    -8748710.80149  -6773100.36546
  20345534.779    20345536.513   -29162290.57749 -22667517.83947
  22437271.930    22437275.865   -15787856.13249 -12257396.15846
  23925349.115    23925355.288    -7515020.10749  -5818431.74945
  21147599.462    21147601.100   -23264642.80949 -18099362.57847
  24014057.974    24014062.210   -10279139.62249  -7972822.26045
  21631665.200    21631668.234   -15178678.40649 -11801378.87847
  21864065.872    21864067.759   -19541959.84349 -15153431.72346
 09  1  1  3  8  0.0000000  0  9G 9G 4G28G32G 8G17G27G20G11
  24688226.966    24688228.483    -2600160.30549  -1986748.85445
  23044455.925    23044459.446    -8845219.71949  -6848302.13046
  20345521.768    20345523.615   -29162358.28949 -22667570.60847
  22438540.412    22438544.647   -15781191.48049 -12252202.91446
  23945764.232    23945769.385    -7407737.26349  -5734834.77145
  21139010.198    21139012.081   -23309780.06149 -18134534.46347
  24030353.193    24030357.758   -10193505.58149  -7906094.49245
  21623732.212    21623735.460   -15220366.77449 -11833863.29547
  21879529.287    21879531.014   -19460698.84049 -15090111.46146
 09  1  1  3  8 30.0000000  0  9G 9G 4G28G32G 8G17G27G20G11
  24678293.163    24678295.166    -2652358.41949  -2027422.71745
  23026138.186    23026142.096    -8941476.99649  -6923307.80446
  20345609.668    20345611.450   -29161896.79949 -22667211.01347
  22439914.301    22439918.514   -15773970.92649 -12246576.49246
  23966191.611    23966197.223    -7300395.74749  -5651192.07345
  21130456.759    21130458.783   -23354727.74649 -18169558.61847
  24046662.322    24046667.953   -10107797.83449  -7839309.27445
  21615901.513    21615904.283   -15261518.11649 -11865929.25147
  21895030.836    21895032.594   -19379239.10049 -15026636.34646
 09  1  1  3  9  0.0000000  0  9G 9G 4G28G32G 8G17G27G20G11
  24668466.986    24668469.779    -2703998.70349  -2067661.94445
  23007869.044    23007873.466    -9037481.40649  -6998116.43846
  20345798.267    20345800.144   -29160905.38049 -22666438.48547
  22441394.166    22441398.266   -15766194.48549 -12240516.92146
  23986629.692    23986633.039    -7192998.82849  -5567506.20545
  21121939.835    21121941.395   -23399485.49049 -18204434.77647
  24062986.411    24062990.041   -10022019.50949  -7772469.08845
  21608172.743    21608176.272   -15302130.88749 -11897575.53647
  21910569.648    21910570.788   -19297582.51049 -14963007.84746
 09  1  1  3  9 30.0000000  0  9G 9G 4G28G32G 8G17G27G20G11
  24658746.635    24658749.388    -2755079.64549  -2107465.27445
  22989648.498    22989652.365    -9133231.06049  -7072726.56146
  20346088.196    20346090.025   -29159382.60549 -22665251.91747
  22442980.248    22442983.699   -15757861.97649 -12234024.04046
  24007075.957    24007079.765    -7085549.76349  -5483779.71045
  21113458.977    21113460.757   -23444052.59049 -18239162.39047
  24079322.912    24079326.895    -9936173.46149  -7705576.09345
  21600547.522    21600550.508   -15342203.08849 -11928800.60747
  21926144.916    21926146.866   -19215731.06749 -14899227.51846
 09  1  1  3 10  0.0000000  0  9G 9G 4G28G32G 8G17G27G20G11
  24649133.130    24649134.851    -2805599.67849  -2146831.51445
  22971477.657    22971480.524    -9228724.93549  -7147137.38146
  20346479.096    20346480.877   -29157327.96349 -22663650.89847
  22444671.467    22444674.983   -15748973.58449 -12227098.01246
  24027531.726    24027536.964    -6978051.81249  -5400015.12145
  21105014.363    21105016.231   -23488428.84449 -18273741.28147
  24095670.894    24095676.232    -9850262.66749  -7638632.65645
  21593025.130    21593027.950   -15381732.94449 -11959603.06147
  21941758.077    21941759.484   -19133686.49849 -14835296.70146
 09  1  1  3 10 30.0000000  0  9G 9G 4G28G32G 8G17G27G20G11
  24639626.981    24639631.584    -2855556.64349  -2185759.02245
  22953355.413    22953358.500    -9323961.26249  -7221347.51946
  20346971.475    20346973.219   -29154740.53049 -22661634.71847
  22446468.873    22446472.079   -15739529.22749 -12219738.76946
  24047996.488    24048001.546    -6870508.36149  -5316215.08445
  21096606.323    21096608.101   -23532612.91849 -18308170.43047
  24112032.068    24112035.776    -9764289.77249  -7571640.86045
  21585606.106    21585609.537   -15420718.88949 -11989981.69347
  21957406.344    21957408.924   -19051450.71049 -14771216.88446
 09  1  1  3 11  0.0000000  0  9G 9G 4G28G32G 8G17G27G20G11
  24630226.659    24630231.231    -2904949.25949  -2224246.74845
  22935281.285    22935284.892    -9418939.11049  -7295356.22846
  20347565.364    20347567.139   -29151620.07549 -22659203.19647
  22448371.086    22448375.313   -15729529.08349 -12211946.43846
  24068469.735    24068475.019    -6762922.99149  -5232382.39345
  21088235.159    21088237.030   -23576604.63549 -18342449.68247
  24128403.614    24128406.788    -9678258.03149  -7504603.20945
  21578291.380    21578294.423   -15459158.71349 -12019934.77847
  21973091.275    21973093.190   -18969025.76849 -14706989.67046
 09  1  1  3 11 30.0000000  0  9G 9G 4G28G32G 8G17G27G20G11
  24620935.251    24620937.878    -2953775.86549  -2262293.49745
  22917257.223    22917259.825    -9513656.62749  -7369162.06646
  20348260.792    20348262.561   -29147965.19349 -22656355.23747
  22450380.295    22450383.899   -15718972.92649 -12203720.84446
  24088950.806    24088954.482    -6655298.63049  -5148519.30345
  21079900.449    21079902.133   -23620403.11049 -18376578.36047
  24144784.454    24144788.188    -9592170.09449  -7437521.75645
  21571080.861    21571083.775   -15497050.72849 -12049460.99647
  21988812.512    21988814.127   -18886413.02349 -14642616.12046
 09  1  1  3 12  0.0000000  0  9G 9G 4G28G32G 8G17G27G20G11
  24611749.340    24611753.163    -3002034.45849  -2299897.56244
  22899282.147    22899286.319    -9608112.46049  -7442763.99546
  20349058.150    20349059.944   -29143775.24149 -22653090.34347
  22452494.881    22452498.813   -15707860.93849 -12195062.13546
  24109436.375    24109440.740    -6547638.58849  -5064628.40245
  21071602.463    21071604.618   -23664007.56749 -18410555.85447
  24161176.835    24161180.638    -9506028.94149  -7370398.81845
  21563975.001    21563977.815   -15534393.19449 -12078558.99447
  22004568.524    22004569.899   -18803614.80549 -14578098.05646
 09  1  1  3 12 30.0000000  0  9G 9G 4G28G32G 8G17G27G20G11
  24602678.460    24602681.275    -3049725.14249  -2337059.13645
  22881358.335    22881360.990    -9702306.58249  -7516161.99546
  20349957.378    20349959.009   -29139050.69449 -22649408.88347
  22454715.384    22454718.545   -15696194.38849 -12185971.30846
  24129928.598    24129934.792    -6439947.07649  -4980712.96645
  21063341.802    21063343.995   -23707418.62149 -18444382.65747
  24177579.410    24177581.425    -9419838.63849  -7303237.57645
  21556973.348    21556976.244   -15571185.68249 -12107228.44047
  22020358.953    22020361.086   -18720633.88449 -14513437.61046
 09  1  1  3 13  0.0000000  0  9G 9G 4G28G32G 8G17G27G20G11
  24593710.618    24593714.730    -3096844.33449  -2373775.35545
  22863483.810    22863487.677    -9796235.66049  -7589353.45746
  20350958.445    20350960.163   -29133789.07649 -22645308.93547
  22457040.874    22457044.176   -15683971.62949 -12176447.06946
  24150428.616    24150432.806    -6332225.81149  -4896774.38845
  21055118.495    21055120.340   -23750633.78649 -18478056.81247
  24193989.120    24193992.841    -9333600.23049  -7236038.89245
  21550077.432    21550080.420   -15607424.56749 -12135466.51547
  22036184.247    22036186.100   -18637470.38349 -14448634.91546
 09  1  1  3 13 30.0000000  0  9G 9G 4G28G32G 8G17G27G20G11
  24584853.310    24584857.153    -3143391.05549  -2410045.53445
  22845659.739    22845663.898    -9889898.88249  -7662337.74546
  20352061.921    20352063.524   -29127990.25349 -22640790.37647
  22459472.341    22459475.707   -15671193.49349 -12166490.06546
  24170931.632    24170936.384    -6224478.42649  -4812815.46745
  21046932.032    21046933.834   -23793652.82449 -18511578.13847
  24210407.853    24210412.359    -9247316.92249  -7168805.19845
  21543286.743    21543289.547   -15643109.09149 -12163272.61147
  22052044.467    22052046.491   -18554126.55349 -14383691.70046
 09  1  1  3 14  0.0000000  0  9G 9G 4G28G32G 8G17G27G20G11
  24576104.737    24576106.233    -3189363.48749  -2445868.19345
  22827887.203    22827891.988    -9983294.83549  -7735113.77346
  20353267.776    20353269.579   -29121653.45149 -22635852.61647
  22462009.484    22462013.427   -15657859.85649 -12156100.19446
  24191439.745    24191443.602    -6116708.07149  -4728838.61845
  21038783.313    21038785.125   -23836474.87049 -18544945.96747
  24226834.861    24226839.493    -9160991.47649  -7101538.66545
  21536602.031    21536605.057   -15678236.92649 -12190644.92947
  22067938.234    22067940.489   -18470603.99249 -14318609.20746
 09  1  1  3 14 30.0000000  0  9G 9G 4G28G32G 8G17G27G20G11
  24567466.007    24567471.248    -3234760.58149  -2481242.57045
  22810165.481    22810168.862   -10076422.12949  -7807680.45346
  20354576.220    20354577.821   -29114777.84149 -22630495.00947
  22464653.024    22464656.534   -15643970.91049 -12145277.62846
  24211952.534    24211955.595    -6008917.94849  -4644846.41345
  21030672.279    21030674.056   -23879099.27049 -18578159.78547
  24243269.993    24243275.256    -9074627.10949  -7034241.81345
  21530023.685    21530026.602   -15712806.92749 -12217582.58047
  22083865.788    22083867.650   -18386904.58849 -14253388.91346
 09  1  1  3 15  0.0000000  0  9G 9G 4G28G32G 8G17G27G20G11
  24558936.912    24558939.058    -3279580.97449  -2516167.51445
  22792495.923    22792498.490   -10169279.80849  -7880037.04446
  20355987.283    20355988.938   -29107363.07149 -22624717.27547
  22467401.492    22467404.754   -15629527.27649 -12134022.83046
  24232466.433    24232470.493    -5901111.59649  -4560841.48445
  21022598.778    21022600.676   -23921525.78349 -18611219.40847
  24259711.511    24259713.961    -8988226.85349  -6966917.00245
  21523551.825    21523554.581   -15746817.30549 -12244084.15147
  22099826.528    22099828.393   -18303030.77549 -14188032.72546
 09  1  1  3 15 30.0000000  0  9G 9G 4G28G32G 8G17G27G20G11
  24550519.219    24550520.946    -3323822.93449  -2550641.78745
  22774877.121    22774880.001   -10261866.51949  -7952182.49446
  20357500.845    20357502.525   -29099408.88449 -22618519.21547
  22470255.606    22470259.020   -15614529.12549 -12122335.93746
  24252983.959    24252988.534    -5793291.89749  -4476826.19845
  21014562.841    21014565.000   -23963753.64649 -18644124.23647
  24276158.965    24276160.933    -8901793.64349  -6899566.50445
  21517186.692    21517189.456   -15780266.44149 -12270148.39247
  22115820.186    22115821.889   -18218983.83249 -14122541.61746
 09  1  1  3 16  0.0000000  0  9G 9G 4G28G32G 8G17G27G20G11
  24542209.362    24542212.231    -3367485.45249  -2584664.54145
  22757309.492    22757313.022   -10354180.99149  -8024115.80546
  20359117.326    20359119.055   -29090914.26849 -22611900.04747
  22473214.947    22473218.266   -15598976.81649 -12110217.22346
  24273504.063    24273508.046    -5685462.56949  -4392803.39745
  21006565.397    21006567.140   -24005781.97549 -18676873.58047
  24292610.556    24292617.236    -8815330.34549  -6832192.55745
  21510928.314    21510930.975   -15813153.29949 -12295774.50247
  22131846.641    22131848.749   -18134765.92749 -14056917.29846
 09  1  1  3 16 30.0000000  0  9G 9G 4G28G32G 8G17G27G20G11
  24534011.058    24534014.983    -3410567.13949  -2618234.67645
  22739795.257    22739798.515   -10446221.64949  -8095835.75446
  20360836.576    20360838.489   -29081878.86549 -22604859.48547
  22476279.605    22476283.947   -15582870.61149 -12097666.92146
  24294025.216    24294029.295    -5577626.85649  -4308775.65245
  20998605.818    20998607.562   -24047610.17249 -18709466.97547
  24309071.860    24309075.359    -8728839.77049  -6764797.35945
  21504777.382    21504780.423   -15845476.16949 -12320961.12847
  22147905.084    22147905.992   -18050378.80749 -13991161.12946
 09  1  1  3 17  0.0000000  0  9G 9G 4G28G32G 8G17G27G20G11
  24525924.186    24525927.003    -3453066.38449  -2651350.95045
  22722332.706    22722336.724   -10537987.08149  -8167341.24346
  20362659.194    20362661.007   -29072301.62449 -22597396.71547
  22479449.881    22479454.056   -15566210.67349 -12084685.12646
  24314545.740    24314550.296    -5469787.40649  -4224744.96845
  20990684.222    20990686.095   -24089237.48749 -18741903.85047
  24325534.543    24325538.404    -8642324.45449  -6697382.89145
  21498734.286    21498737.284   -15877233.23349 -12345706.87447
  22163994.796    22163996.259   -17965824.11449 -13925274.36446
 09  1  1  3 17 30.0000000  0  9G 9G 4G28G32G 8G17G27G20G11
  24517947.578    24517951.900    -3494981.50349  -2684012.12645
  22704922.979    22704926.372   -10629476.28949  -8238631.49346
  20364585.001    20364586.738   -29062182.31849 -22589511.55047
  22482725.563    22482729.547   -15548997.38649 -12071272.15546
  24335067.194    24335071.753    -5361947.59449  -4140714.02945
  20982801.389    20982802.988   -24130663.01449 -18774183.48347
  24342001.543    24342005.710    -8555787.62449  -6629951.65945
  21492798.965    21492802.143   -15908423.07849 -12370010.62447
  22180116.825    22180117.914   -17881103.38449 -13859258.22246
 09  1  1  3 18  0.0000000  0  9G 9G 4G28G32G 8G17G27G20G11
  24510085.071    24510085.886    -3536311.80549  -2716217.51445
  22687566.405    22687569.317   -10720687.81849  -8309705.38246
  20366613.697    20366615.660   -29051520.62949 -22581203.75047
  22486106.293    22486109.528   -15531231.29349 -12057428.44146
  24355586.968    24355592.207    -5254110.79149  -4056685.43345
  20974956.600    20974958.490   -24171886.06549 -18806305.33947
  24358472.650    24358477.154    -8469232.34849  -6562506.07145
  21486972.199    21486974.680   -15939044.53549 -12393871.47847
  22196269.462    22196270.990   -17796218.83449 -13793114.43346
 09  1  1  3 18 30.0000000  0  9G 9G 4G28G32G 8G17G27G20G11
  24502330.190    24502334.556    -3577055.29149  -2747965.70345
  22670261.245    22670264.920   -10811620.27749  -8380561.80946
  20368745.881    20368747.838   -29040315.87249 -22572472.78447
  22489592.009    22489595.739   -15512912.55449 -12043154.09246
  24376107.762    24376111.858    -5146279.76249  -3972661.32845
  20967150.814    20967152.940   -24212906.00649 -18838268.92847
  24374945.287    24374950.897    -8382661.09849  -6495047.98145
  21481253.238    21481256.241   -15969095.62049 -12417287.88547
  22212453.638    22212455.301   -17711171.93849 -13726844.13946
 09  1  1  3 19  0.0000000  0  9G 9G 4G28G32G 8G17G27G20G11
  24494689.259    24494690.095    -3617211.77849  -2779256.46245
  22653012.026    22653014.097   -10902272.99049  -8451200.25846
  20370981.553    20370983.180   -29028568.11149 -22563318.69447
  22493182.923    22493186.559   -15494042.23649 -12028449.94146
  24396625.767    24396629.494    -5038458.09849  -3888644.51345
  20959383.850    20959385.738   -24253722.46749 -18870073.96647
  24391422.120    24391427.630    -8296077.16449  -6427580.06245
  21475643.581    21475646.552   -15998575.61949 -12440259.29047
  22228668.303    22228669.447   -17625965.00049 -13660449.14246
 09  1  1  3 19 30.0000000  0  9G 9G 4G28G32G 8G17G27G20G11
  24487156.854    24487159.034    -3656779.91649  -2810088.75345
  22635814.642    22635816.498   -10992644.54749  -8521619.61546
  20373320.624    20373322.160   -29016276.77449 -22553741.03847
  22496878.855    22496882.223   -15474620.60249 -12013316.21346
  24417140.355    24417144.198    -4930649.19149  -3804637.63445
  20951655.501    20951657.419   -24294334.58949 -18901719.77547
  24407903.690    24407905.658    -8209483.45049  -6360104.50745
  21470142.779    21470145.366   -16027483.12949 -12462784.60047
  22244912.557    22244913.894   -17540599.57149 -13593930.64046
 09  1  1  3 20  0.0000000  0  9G 9G 4G28G32G 8G17G27G20G11
  24479741.338    24479744.430    -3695758.69349  -2840461.83145
  22618670.740    22618673.867   -11082734.18749  -8591819.30846
  20375762.703    20375764.573   -29003441.88949 -22543739.84047
  22500679.624    22500683.313   -15454648.36049 -11997753.43646
  24437653.984    24437654.698    -4822856.52649  -3720643.43045
  20943966.424    20943968.396   -24334741.86849 -18933205.96747
  24424381.243    24424384.798    -8122882.90549  -6292623.62945
  21464750.622    21464753.379   -16055817.18049 -12484863.06247
  22261186.551    22261188.179   -17455077.81949 -13527290.33146
 09  1  1  3 20 30.0000000  0  9G 9G 4G28G32G 8G17G27G20G11
  24472436.235    24472439.579    -3734145.70549  -2870373.78545
  22601580.741    22601584.812   -11172539.52049  -8661797.46546
  20378308.870    20378310.586   -28990061.96849 -22533313.94147
  22504584.750    22504588.299   -15434125.22049 -11981761.39646
  24458162.456    24458166.125    -4715081.89249  -3636663.26445
  20936316.260    20936318.179   -24374942.95849 -18964531.49047
  24440861.134    24440866.626    -8036277.58849  -6225139.03445
  21459468.729    21459471.261   -16083575.29249 -12506492.74347
  22277489.895    22277492.221   -17369400.35049 -13460528.68446
 09  1  1  3 21  0.0000000  0  9G 9G 4G28G32G 8G17G27G20G11
  24465242.595    24465248.639    -3771940.47549  -2899824.25445
  22584545.754    22584549.263   -11262059.63449  -8731553.37846
  20380958.856    20380960.400   -28976137.03549 -22522463.35847
  22508595.614    22508598.976   -15413051.99949 -11965340.72046
  24478665.892    24478670.427    -4607329.10249  -3552700.11745
  20928705.729    20928707.692   -24414937.22449 -18995695.84947
  24457341.984    24457345.641    -7949670.60449  -6157653.12545
  21454296.350    21454299.044   -16110756.95449 -12527673.23947
  22293824.297    22293825.501   -17283569.60549 -13393647.60346
 09  1  1  3 21 30.0000000  0  9G 9G 4G28G32G 8G17G27G20G11
  24458165.155    24458167.369    -3809141.99349  -2928812.42345
  22567565.210    22567568.780   -11351293.56749  -8801086.30146
  20383712.420    20383714.139   -28961666.88249 -22511187.92547
  22512709.605    22512712.787   -15391429.47649 -11948492.00746
  24499165.970    24499170.632    -4499601.44949  -3468756.53445
  20921134.260    20921136.563   -24454724.11049 -19026698.61947
  24473821.666    24473827.675    -7863064.94249  -6090168.27445
  21449233.635    21449236.502   -16137360.50949 -12548403.25947
  22310186.100    22310187.260   -17197587.51449 -13326648.57946
 09  1  1  3 22  0.0000000  0  9G 9G 4G28G32G 8G17G27G20G11
  24451197.049    24451203.550    -3845748.59749  -2957337.04045
  22550639.077    22550642.899   -11440239.97949  -8870395.17646
  20386569.951    20386571.433   -28946650.63949 -22499486.97047
  22516929.634    22516932.685   -15369257.82049 -11931215.41846
  24519661.641    24519664.187    -4391901.52849  -3384834.61645
  20913602.964    20913604.782   -24494302.61749 -19057539.02047
  24490302.157    24490306.275    -7776463.27349  -6022686.49745
  21444281.453    21444284.293   -16163384.33849 -12568681.55747
  22326576.743    22326577.410   -17111455.17949 -13259532.48146
 09  1  1  3 22 30.0000000  0  9G 9G 4G28G32G 8G17G27G20G11
  24444347.990    24444350.046    -3881754.31049  -2985393.45645
  22533768.766    22533773.213   -11528891.80049  -8939474.48846
  20389532.350    20389533.903   -28931082.97649 -22487356.33647
  22521253.151    22521257.116   -15346532.30949 -11913507.25746
  24540151.587    24540153.354    -4284227.56849  -3300932.93645
  20906112.260    20906114.032   -24533666.69249 -19088212.32847
  24506780.339    24506786.387    -7689863.24549  -5955206.03845
  21439441.064    21439443.451   -16188822.07849 -12588503.16747
  22342995.746    22342997.251   -17025169.05149 -13192296.54946
 09  1  1  3 23  0.0000000  0  9G 9G 4G28G32G 8G17G27G20G11
  24437610.544    24437613.321    -3917159.49149  -3012981.86745
  22516955.956    22516959.360   -11617249.75349  -9008324.81646
  20392599.527    20392601.323   -28914964.88249 -22474796.79447
  22525682.974    22525686.379   -15323254.98249 -11895369.10046
  24560633.287    24560639.064    -4176583.77949  -3217054.73145
  20898662.357    20898664.137   -24572816.95149 -19118719.01547
  24523261.040    24523265.208    -7603268.96549  -5887730.06845
  21434711.358    21434714.370   -16213674.26949 -12607868.50647
  22359444.009    22359445.699   -16938732.23949 -13124943.20246
 09  1  1  3 23 30.0000000  0  9G 9G 4G28G32G 8G17G27G20G11
  24430985.491    24430990.471    -3951971.43849  -3040108.03745
  22500196.268    22500200.296   -11705320.99849  -9076951.72746
  20395769.802    20395771.409   -28898304.91549 -22461815.01347
  22530215.386    22530219.559   -15299435.05649 -11876808.14046
  24581109.172    24581115.726    -4068981.81049  -3133209.10745
  20891251.068    20891253.247   -24611761.03849 -19149065.05447
  24539735.744    24539741.332    -7516691.64849  -5820267.28145
  21430092.666    21430095.010   -16237948.17049 -12626783.24247
  22375919.403    22375921.235   -16852155.11549 -13057480.50946
 09  1  1  3 24  0.0000000  0  9G 9G 4G28G32G 8G17G27G20G11
  24424474.028    24424477.290    -3986186.84249  -3066769.45945
  22483492.162    22483495.630   -11793102.16749  -9145352.60646
  20399043.686    20399045.385   -28881100.30349 -22448408.83947
  22534851.737    22534855.493   -15275070.80449 -11857823.03946
  24601579.301    24601583.641    -3961422.79949  -3049396.95545
  20883880.161    20883882.059   -24650496.03149 -19179248.16147
  24556208.351    24556212.591    -7430131.71249  -5752818.05045
  21425584.117    21425586.777   -16261639.62949 -12645244.12547
  22392421.179    22392422.582   -16765436.80349 -12989907.79346
 09  1  1  3 24 30.0000000  0  9G 9G 4G28G32G 8G17G27G20G11
  24418076.098    24418079.526    -4019803.67149  -3092964.35045
  22466842.888    22466847.358   -11880590.66049  -9213525.42646
  20402421.567    20402423.263   -28863349.66849 -22434577.18947
  22539591.575    22539595.768   -15250161.80249 -11838413.45246
  24622037.378    24622041.763    -3853908.30149  -2965619.51045
  20876549.516    20876551.003   -24689019.99849 -19209266.82547
  24572677.210    24572680.511    -7343590.99649  -5685383.80745
  21421186.881    21421189.682   -16284746.91849 -12663249.81747
  22408949.637    22408951.603   -16678578.14049 -12922225.72046
 09  1  1  3 25  0.0000000  0  9G 9G 4G28G32G 8G17G27G20G11
  24411792.658    24411799.423    -4052820.48949  -3118691.75545
  22450250.815    22450254.425   -11967784.87049  -9281468.93046
  20405903.417    20405905.480   -28845052.14149 -22420319.37447
  22544436.252    22544439.328   -15224708.18249 -11818579.48746
  24642488.680    24642492.432    -3746440.70749  -2881878.60345
  20869259.013    20869260.859   -24727331.31549 -19239119.78847
  24589140.822    24589142.861    -7257071.80849  -5617966.35645
  21416901.198    21416903.937   -16307268.38349 -12680799.01347
  22425505.016    22425506.467   -16591580.14549 -12854435.08146
 09  1  1  3 25 30.0000000  0  9G 9G 4G28G32G 8G17G27G20G11
  24405627.036    24405628.305    -4085236.77149  -3143951.17045
  22433714.682    22433717.839   -12054683.86749  -9349182.40046
  20409489.235    20409491.127   -28826207.98649 -22405635.62847
  22549383.457    22549386.735   -15198710.80349 -11798321.81246
  24662929.309    24662932.934    -3639023.43249  -2798176.90545
  20862009.042    20862011.016   -24765429.51449 -19268806.68347
  24605599.758    24605605.083    -7170576.94749  -5550567.81245
  21412727.337    21412729.952   -16329202.96949 -12697890.91147
  22442086.207    22442087.922   -16504444.89649 -12786537.48046
 09  1  1  3 26  0.0000000  0  9G 9G 4G28G32G 8G17G27G20G11
  24399570.359    24399575.966    -4117052.01749  -3168742.26345
  22417234.641    22417238.290   -12141287.04649  -9416665.36846
  20413179.290    20413181.154   -28806817.27449 -22390525.98747
  22554433.131    22554437.406   -15172170.95649 -11777641.41446
  24683362.204    24683364.277    -3531659.84549  -2714517.08045
  20854799.932    20854801.859   -24803314.42749 -19298327.38547
  24622053.837    24622058.439    -7084109.94149  -5483190.98545
  21408664.940    21408667.888   -16350550.21749 -12714525.14747
  22458693.510    22458695.347   -16417174.25549 -12718534.39246
 09  1  1  3 26 30.0000000  0  9G 9G 4G28G32G 8G17G27G20G11
  24393632.220    24393634.639    -4148263.85949  -3193063.15545
  22400811.171    22400815.272   -12227591.63149  -9483915.66346
  20416973.403    20416975.261   -28786878.51649 -22374989.29947
  22559586.923    22559590.947   -15145087.98949 -11756537.81146
  24703780.169    24703784.541    -3424351.86449  -2630900.55945
  20847631.715    20847633.405   -24840983.66249 -19327680.01548
  24638503.419    24638506.666    -6997672.07949  -5415836.90345
  21404714.844    21404717.723   -16371307.50149 -12730699.66247
  22475326.235    22475327.926   -16329768.43949 -12650425.97446
 09  1  1  3 27  0.0000000  0  9G 9G 4G28G32G 8G17G27G20G11
  24387805.274    24387812.525    -4178871.85949  -3216913.52145
  22384444.422    22384448.230   -12313597.12949  -9550932.90146
  20420871.815    20420873.589   -28766392.43549 -22359026.12847
  22564844.173    22564847.491   -15117463.13549 -11735011.94846
  24724187.371    24724194.437    -3317102.37049  -2547329.57145
  20840504.359    20840506.323   -24878437.01549 -19356864.42948
  24654943.108    24654948.330    -6911266.67949  -5348508.08545
  21400877.531    21400879.888   -16391474.23549 -12746414.00347
  22491984.443    22491985.442   -16242229.70649 -12582213.96546
 09  1  1  3 27 30.0000000  0  9G 9G 4G28G32G 8G17G27G20G11
  24382097.765    24382102.074    -4208876.39649  -3240293.70945
  22368134.783    22368139.034   -12399303.63849  -9617717.17346
  20424874.344    20424876.210   -28745359.58349 -22342636.90447
  22570203.473    22570207.152   -15089298.37349 -11713065.37446
  24744587.469    24744590.340    -3209916.33749  -2463808.12245
  20833418.375    20833420.167   -24915675.12949 -19385881.12648
  24671381.208    24671386.070    -6824897.43049  -5281207.47145
  21397152.280    21397154.853   -16411050.97949 -12761668.61447
  22508666.694    22508668.076   -16154560.95749 -12513900.66046
 09  1  1  3 28  0.0000000  0  9G 9G 4G28G32G 8G17G27G20G11
  24376505.197    24376506.491    -4238274.46749  -3263201.27845
  22351883.393    22351886.515   -12484707.70449  -9684265.77546
  20428981.261    20428982.928   -28723777.86949 -22325819.99747
  22575665.992    22575669.356   -15060592.34349 -11690697.01046
  24764971.617    24764975.604    -3102794.05449  -2380336.28945
  20826373.821    20826375.770   -24952694.67049 -19414727.50648
  24687809.415    24687814.777    -6738564.80749  -5213935.40745
  21393539.721    21393542.711   -16430034.35749 -12776460.85947
  22525373.978    22525375.341   -16066761.42549 -12445485.44546
 09  1  1  3 28 30.0000000  0  9G 9G 4G28G32G 8G17G27G20G11
  24371025.050    24371028.255    -4267065.98049  -3285636.19845
  22335689.294    22335692.646   -12569808.96049  -9750578.42846
  20433192.415    20433194.301   -28701648.06249 -22308575.99947
  22581231.219    22581234.666   -15031346.58349 -11667908.07346
  24785343.863    24785348.124    -2995739.40549  -2296917.13945
  20819370.790    20819372.561   -24989495.48449 -19443403.44948
  24704228.868    24704234.709    -6652272.43049  -5146694.64245
  21390040.363    21390043.359   -16448424.05149 -12790790.49047
  22542106.864    22542108.562   -15978833.29749 -12376970.03146
 09  1  1  3 29  0.0000000  0  9G 9G 4G28G32G 8G17G27G20G11
  24365661.074    24365665.611    -4295250.43449  -3307598.13445
  22319552.575    22319555.968   -12654606.72449  -9816654.58946
  20437507.778    20437509.628   -28678970.12249 -22290904.88247
  22586898.675    22586902.824   -15001562.25849 -11644699.47446
  24805700.941    24805705.891    -2888755.65849  -2213553.27845
  20812409.459    20812411.389   -25026076.82449 -19471908.37548
  24720642.385    24720648.404    -6566023.36549  -5079487.67745
  21386653.908    21386656.599   -16466219.18149 -12804656.82447
  22558862.774    22558864.840   -15890778.64049 -12308356.02446
 09  1  1  3 29 30.0000000  0  9G 9G 4G28G32G 8G17G27G20G11
  24360414.226    24360416.437    -4322827.94349  -3329087.06845
  22303474.226    22303477.934   -12739099.71849  -9882493.26546
  20441927.708    20441929.468   -28655744.55849 -22272807.05047
  22592669.021    22592672.703   -14971240.50649 -11621072.09646
  24826044.947    24826050.306    -2781846.14449  -2130247.26545
  20805490.249    20805492.035   -25062438.21049 -19500241.91048
  24737046.849    24737051.647    -6479820.41949  -5012316.64445
  21383380.444    21383383.600   -16483419.38249 -12818059.57247
  22575643.627    22575644.805   -15802599.32549 -12239644.88046
 09  1  1  3 30  0.0000000  0  9G 9G 4G28G32G 8G17G27G20G11
  24355281.360    24355284.272    -4349797.31749  -3350102.16045
  22287454.187    22287457.589   -12823287.05649  -9948093.78446
  20446451.666    20446453.330   -28631971.22649 -22254282.38647
  22598541.445    22598545.061   -14940381.98149 -11597026.46446
  24846372.824    24846379.909    -2675013.46749  -2047001.10545
  20798612.950    20798614.693   -25098578.88949 -19528403.47848
  24753442.648    24753445.929    -6393666.37549  -4945183.73245
  21380221.441    21380223.672   -16500023.50949 -12830997.85347
  22592446.485    22592447.889   -15714297.04449 -12170837.93046
 09  1  1  3 30 30.0000000  0  9G 9G 4G28G32G 8G17G27G20G11
  24350266.251    24350268.413    -4376156.95449  -3370642.14445
  22271492.397    22271495.735   -12907166.91949 -10013454.70446
  20451079.922    20451081.645   -28607649.21349 -22235330.17247
  22604515.020    22604519.517   -14908987.01349 -11572562.82246
  24866689.039    24866694.065    -2568259.74549  -1963816.48345
  20791777.892    20791779.730   -25134497.21949 -19556391.78348
  24769827.086    24769831.845    -6307563.34049  -4878090.55445
  21377175.489    21377177.827   -16516030.01649 -12843470.44747
  22609272.996    22609274.532   -15625872.50749 -12101935.69846
 09  1  1  3 31  0.0000000  0  9G 9G 4G28G32G 8G17G27G20G11
  24345364.945    24345367.852    -4401907.18849  -3390707.23145
  22255588.826    22255592.337   -12990739.15549 -10078575.90746
  20455812.536    20455814.125   -28582779.52649 -22215951.19847
  22610591.333    22610594.581   -14877057.48949 -11547682.63846
  24886988.436    24886991.769    -2461589.19849  -1880696.66645
  20784985.134    20784986.754   -25170193.45549 -19584207.02248
  24786200.460    24786206.063    -6221514.91549  -4811039.89045
  21374243.039    21374245.717   -16531439.23149 -12855477.61947
  22626122.651    22626123.578   -15537327.92849 -12032939.94246
 09  1  1  3 31 30.0000000  0  9G 9G 4G28G32G 8G17G27G20G11
  24340579.867    24340585.600    -4427046.81149  -3410296.55845
  22239744.315    22239747.689   -13074001.97049 -10143456.01446
  20460649.267    20460650.944   -28557361.72249 -22196145.12147
  22616768.557    22616772.803   -14844593.73749 -11522386.16946
  24907270.685    24907276.183    -2355003.85349  -1797643.23545
  20778235.007    20778236.630   -25205665.82349 -19611847.82548
  24802564.872    24802568.312    -6135522.97449  -4744033.26745
  21371424.661    21371427.502   -16546249.65949 -12867018.20347
  22642994.611    22642996.684   -15448664.36449 -11963851.45946
 09  1  1  3 32  0.0000000  0  9G 9G 4G28G32G 8G17G27G20G11
  24335915.067    24335916.992    -4451575.62649  -3429409.89545
  22223959.343    22223962.484   -13156954.43849 -10208094.29546
  20465590.417    20465591.975   -28531396.33449 -22175912.36247
  22623048.399    22623051.298   -14811596.85849 -11496674.28946
  24927537.315    24927539.895    -2248506.73649  -1714658.62645
  20771527.481    20771529.219   -25240913.64849 -19639313.66848
  24818918.160    24818920.771    -6049590.34949  -4677072.89445
  21368720.473    21368723.145   -16560460.42449 -12878091.52247
  22659890.284    22659891.055   -15359883.57449 -11894671.63746
 09  1  1  3 32 30.0000000  0  9G 9G 4G28G32G 8G17G27G20G11
  24331362.748    24331364.409    -4475493.27349  -3448047.00345
  22208232.351    22208236.420   -13239595.57249 -10272489.97446
  20470635.624    20470637.338   -28504883.13349 -22155252.73547
  22629428.193    22629431.174   -14778067.99249 -11470547.88446
  24947785.927    24947790.275    -2142101.05349  -1631745.22245
  20764862.735    20764864.690   -25275936.48749 -19666604.19948
  24835257.209    24835262.058    -5963719.90749  -4610160.95045
  21366130.146    21366132.939   -16574071.09949 -12888697.23447
  22676805.114    22676807.461   -15270987.32649 -11825401.85446
 09  1  1  3 33  0.0000000  0  9G 9G 4G28G32G 8G17G27G20G11
  24326927.529    24326929.290    -4498799.17048  -3466207.47745
  22192566.456    22192569.877   -13321924.53149 -10336642.39146
  20475785.099    20475787.059   -28477822.34449 -22134166.41347
  22635909.736    22635912.773   -14744008.26249 -11444007.80846
  24968014.633    24968021.409    -2035789.81149  -1548905.35545
  20758241.279    20758242.838   -25310732.94949 -19693718.33848
  24851585.046    24851590.724    -5877914.48149  -4543299.69445
  21363654.100    21363657.087   -16587080.88149 -12898834.71347
  22693743.119    22693745.409   -15181977.00449 -11756043.17246
 09  1  1  3 33 30.0000000  0  9G 9G 4G28G32G 8G17G27G20G11
  24322608.059    24322612.338    -4521493.14149  -3483891.04545
  22176959.291    22176962.319   -13403940.35349 -10400550.82146
  20481038.602    20481040.621   -28450214.37049 -22112653.71147
  22642491.919    22642495.148   -14709418.87249 -11417055.02946
  24988226.011    24988231.901    -1929575.74649  -1466141.28045
  20751662.963    20751664.615   -25345302.59249 -19720655.72948
  24867901.340    24867905.965    -5792176.85549  -4476491.22945
  21361293.384    21361295.943   -16599489.52049 -12908503.78347
  22710703.397    22710704.991   -15092854.59849 -11686597.15846
 09  1  1  3 34  0.0000000  0  9G 9G 4G28G32G 8G17G27G20G11
  24318406.527    24318410.427    -4543574.54649  -3501097.35245
  22161411.244    22161415.480   -13485642.09649 -10464214.50246
  20486396.343    20486398.265   -28422059.64549 -22090714.97147
  22649175.042    22649177.844   -14674300.99949 -11389690.44946
  25008420.271    25008426.030    -1823462.07049  -1383455.43445
  20745127.667    20745129.624   -25379644.55949 -19747415.70148
  24884203.814    24884208.161    -5706509.77249  -4409737.79145
  21359046.680    21359049.571   -16611296.35149 -12917703.89547
  22727683.132    22727685.468   -15003621.66249 -11617065.01546
 09  1  1  3 34 30.0000000  0  8G 9G 4G28G32G 8G17G20G11
  24314321.316    24314323.907    -4565043.05049  -3517826.06345
  22145924.446    22145927.571   -13567028.99249 -10527632.84546
  20491858.202    20491860.103   -28393358.44449 -22068350.40047
  22655957.457    22655961.093   -14638655.93549 -11361915.06946
  25028593.126    25028599.055    -1717451.84149  -1300850.19045
  20738636.171    20738638.186   -25413758.24149 -19773997.80548
  21356914.406    21356917.551   -16622500.78549 -12926434.61747
  22744685.202    22744686.287   -14914279.54549 -11547447.80246
 09  1  1  3 35  0.0000000  0  8G 9G 4G28G32G 8G17G20G11
  24310353.952    24310355.865    -4585899.50949  -3534077.82045
  22130497.036    22130499.796   -13648100.79149 -10590805.64846
  20497423.489    20497425.367   -28364111.76549 -22045560.78647
  22662840.122    22662844.246   -14602485.44149 -11333730.26946
  25048745.414    25048749.916    -1611548.89249  -1218328.52845
  20732187.905    20732189.941   -25447643.81949 -19800402.16348
  21354897.192    21354899.880   -16633102.91749 -12934696.00747
  22761706.488    22761707.953   -14824830.85749 -11477747.52946
 09  1  1  3 35 30.0000000  0  8G 9G 4G28G32G 8G17G20G11
  24306499.730    24306503.308    -4606141.99249  -3549851.20245
  22115130.304    22115132.920   -13728855.01449 -10653731.00546
  20503093.194    20503094.863   -28334318.09449 -22022344.94647
  22669823.937    22669826.981   -14565789.15349 -11305135.76946
  25068878.876    25068883.150    -1505754.08049  -1135891.16345
  20725783.709    20725785.446   -25481298.61349 -19826626.67948
  21352994.350    21352997.298   -16643100.65649 -12942486.44347
  22778748.610    22778750.277   -14735275.58849 -11407964.20146
 09  1  1  3 36  0.0000000  0  7G 9G 4G28G32G17G20G11
  24302765.755    24302768.651    -4625769.31849  -3565145.23545
  22099823.351    22099826.892   -13809290.12349 -10716407.69246
  20508866.717    20508868.470   -28303977.71449 -21998703.09847
  22676906.864    22676910.008   -14528567.89749 -11276132.18546
  20719423.911    20719425.266   -25514721.19849 -19852670.25148
  21351206.927    21351209.986   -16652493.51349 -12949805.53647
  22795809.829    22795812.639   -14645614.57149 -11338098.48446
 09  1  1  3 36 30.0000000  0  7G 9G 4G28G32G17G20G11
  24299146.961    24299150.127    -4644782.38749  -3579960.61745
  22084578.395    22084581.107   -13889406.25149 -10778835.81646
  20514743.998    20514746.059   -28273091.84249 -21974636.18847
  22684088.962    22684092.897   -14490823.99449 -11246721.35146
  20713107.764    20713109.537   -25547911.80149 -19878533.06448
  21349534.715    21349537.521   -16661281.73949 -12956653.48747
  22812891.914    22812893.765   -14555850.58249 -11268152.53446
 09  1  1  3 37  0.0000000  0  7G 9G 4G28G32G17G20G11
  24295645.774    24295648.758    -4663181.14449  -3594297.31745
  22069393.877    22069396.402   -13969202.44449 -10841014.63246
  20520725.158    20520726.958   -28241660.72649 -21950144.41647
  22691370.861    22691374.549   -14452558.50249 -11216904.08146
  20706835.926    20706837.937   -25580869.67849 -19904214.52548
  21347977.533    21347980.293   -16669464.63249 -12963029.74647
  22829992.825    22829993.776   -14465985.27749 -11198127.62546
 09  1  1  3 37 30.0000000  0  7G 9G 4G28G32G17G20G11
  24292263.426    24292267.062    -4680964.88649  -3608154.76845
  22054270.306    22054272.565   -14048677.20549 -10902942.99946
  20526810.135    20526811.954   -28209684.10649 -21925227.57747
  22698751.961    22698755.508   -14413772.04249 -11186680.85746
  20700608.967    20700610.627   -25613593.43049 -19929713.55148
  21346536.041    21346538.576   -16677041.04449 -12968933.42147
  22847112.413    22847113.601   -14376019.31549 -11128024.30246
 09  1  1  3 38  0.0000000  0  7G 9G 4G28G32G17G20G11
  24288994.759    24288996.267    -4698134.21949  -3621533.46045
  22039207.504    22039210.401   -14127830.51449 -10964620.86946
  20532998.601    20533000.422   -28177163.41949 -21899886.78447
  22706230.524    22706234.349   -14374466.92049 -11156053.49046
  20694426.437    20694427.934   -25646083.01349 -19955030.10748
  21345209.609    21345212.052   -16684011.64749 -12974365.03247
  22864251.278    22864252.606   -14285955.21149 -11057844.49746
 09  1  1  3 38 30.0000000  0  7G 9G 4G28G32G17G20G11
  24285845.289    24285849.288    -4714687.66649  -3634432.24345
  22024206.879    22024209.590   -14206660.87249 -11026047.09646
  20539290.705    20539292.623   -28144098.29249 -21874121.76147
  22713808.617    22713812.673   -14334643.68049 -11125022.38346
  20688288.606    20688290.337   -25678336.71249 -19980162.85148
  21343998.327    21344001.121   -16690375.36349 -12979323.75047
  22881408.580    22881410.398   -14195793.57649 -10987588.68346
 09  1  1  3 39  0.0000000  0  7G 9G 4G28G32G17G20G11
  24282812.858    24282815.408    -4730626.28849  -3646851.92445
  22009267.051    22009270.476   -14285167.71049 -11087221.22246
  20545686.297    20545688.169   -28110489.56949 -21847933.15247
  22721485.523    22721489.862   -14294304.09249 -11093588.93646
  20682195.894    20682197.776   -25710353.90649 -20005111.30648
  21342902.856    21342905.182   -16696132.44849 -12983809.76147
  22898583.720    22898585.884   -14105536.57149 -10917258.57346
 09  1  1  3 39 30.0000000  0  7G 9G 4G28G32G17G20G11
  24279895.938    24279899.384    -4745948.95649  -3658791.69045
  21994389.851    21994393.207   -14363349.51549 -11148142.08246
  20552184.988    20552187.222   -28076336.97049 -21821320.73947
  22729260.460    22729264.091   -14253448.66349 -11061753.53346
  20676148.540    20676150.152   -25742133.45349 -20029874.57848
  21341922.894    21341925.682   -16701281.54449 -12987822.01747
  22915777.597    22915778.730   -14015184.72149 -10846854.54246
 09  1  1  3 40  0.0000000  0  7G 9G 4G28G32G17G20G11
  24277096.836    24277101.184    -4760655.75549  -3670251.52045
  21979574.227    21979577.287   -14441205.52049 -11208809.08546
  20558787.408    20558789.555   -28041641.19849 -21794285.08047
  22737132.351    22737135.876   -14212078.92249 -11029517.36546
  20670146.335    20670148.098   -25773674.38149 -20054451.90548
  21341059.102    21341061.574   -16705822.58949 -12991360.46747
  22932987.243    22932989.742   -13924739.81049 -10776378.02346
 09  1  1  3 40 30.0000000  0  7G 9G 4G28G32G17G20G11
  24274415.312    24274419.016    -4774746.50049  -3681231.27345
  21964820.421    21964824.424   -14518734.65149 -11269221.38246
  20565493.105    20565494.987   -28006402.81349 -21766826.60747
  22745102.213    22745105.837   -14170196.27849 -10996881.54546
  20664189.999    20664191.736   -25804975.78349 -20078842.59148
  21340310.401    21340313.044   -16709755.30949 -12994424.89447
  22950216.346    22950218.643   -13834203.36249 -10705830.16546
 09  1  1  3 41  0.0000000  0  7G 9G 4G28G32G17G20G11
  24271852.716    24271852.120    -4788221.55249  -3691731.33645
  21950130.051    21950132.893   -14595936.57849 -11329378.71346
  20572301.902    20572304.166   -27970622.54249 -21738945.88247
  22753169.958    22753173.506   -14127802.26549 -10963847.25146
  20658279.081    20658280.993   -25836037.05549 -20103046.17048
  21339677.389    21339680.461   -16713080.07549 -12997015.59447
  22967461.337    22967463.393   -13743576.99749 -10635212.23946
 09  1  1  3 41 30.0000000  0  7G 9G 4G28G32G17G20G11
  24269404.371    24269407.249    -4801080.70549  -3701751.49045
  21935501.139    21935504.379   -14672810.15149 -11389280.17947
  20579213.707    20579215.691   -27934300.77949 -21710643.21447
  22761333.727    22761336.898   -14084898.25049 -10930415.56646
  20652414.271    20652416.070   -25866857.12849 -20127061.79348
  21339160.966    21339163.175   -16715795.94649 -12999131.83047
  22984724.706    22984725.603   -13652862.04549 -10564525.29446
 09  1  1  3 42  0.0000000  0  7G 9G 4G28G32G17G20G11
  24267072.375    24267078.337    -4813324.21449  -3711291.84845
  21920934.823    21920939.043   -14749354.70349 -11448925.27247
  20586228.610    20586230.495   -27897438.45849 -21681919.33347
  22769595.137    22769599.161   -14041485.76049 -10896587.65346
  20646595.389    20646597.169   -25897435.37949 -20150888.97548
  21338759.814    21338762.321   -16717903.01149 -13000773.67147
  23002003.274    23002006.084   -13562060.21449 -10493770.64246
 09  1  1  3 42 30.0000000  0  7G 9G 4G28G32G17G20G11
  24264860.507    24264867.848    -4824953.33349  -3720353.47945
  21906431.463    21906435.498   -14825570.54249 -11508314.23847
  20593345.713    20593347.778   -27860037.09949 -21652775.42647
  22777953.111    22777955.815   -13997567.37149 -10862365.55746
  20640822.556    20640824.345   -25927772.00949 -20174527.89848
  21338474.442    21338476.667   -16719402.13349 -13001941.80347
  23019298.991    23019300.176   -13471173.83149 -10422950.11946
 09  1  1  3 43  0.0000000  0  7G 9G 4G28G32G17G20G11
  24262768.015    24262769.385    -4835966.55849  -3728935.25845
  21891991.450    21891994.374   -14901455.25049 -11567445.16847
  20600565.555    20600567.641   -27822095.67349 -21623210.68447
  22786407.348    22786409.924   -13953142.88549 -10827749.08446
  20635096.100    20635098.037   -25957864.35149 -20197976.46948
  21338305.209    21338307.816   -16720291.85249 -13002635.06247
  23036610.746    23036611.675   -13380202.59849 -10352063.47646
 09  1  1  3 43 30.0000000  0  7G 9G 4G28G32G17G20G11
  24260785.997    24260791.255    -4846363.96949  -3737037.13045
  21877614.303    21877617.409   -14977007.92249 -11626317.36547
  20607888.316    20607890.489   -27783614.66749 -21593225.50247
  22794956.440    22794959.223   -13908213.59149 -10792739.24746
  20629416.502    20629418.296   -25987711.24749 -20221233.77848
  21338252.355    21338254.810   -16720571.55949 -13002852.99847
  23053937.012    23053938.916   -13289147.84549 -10281111.75146
 09  1  1  3 44  0.0000000  0  7G 9G 4G28G32G17G20G11
  24258927.434    24258929.551    -4856146.20149  -3744659.64845
  21863300.202    21863303.114   -15052228.32149 -11684930.64447
  20615313.545    20615315.622   -27744595.30349 -21562820.81747
  22803601.975    22803604.883   -13862781.66349 -10757337.75146
  20623783.492    20623785.311   -26017312.62649 -20244299.77748
  21338314.382    21338317.369   -16720242.02849 -13002596.21047
  23071280.755    23071281.923   -13198011.79749 -10210096.68146
 09  1  1  3 44 30.0000000  0  7G 9G 4G28G32G17G20G11
  24257181.413    24257185.206    -4865313.49349  -3751802.99145
  21849049.838    21849052.315   -15127115.60749 -11743284.34347
  20622841.124    20622842.990   -27705038.53749 -21531997.38247
  22812342.664    22812345.755   -13816848.65049 -10721545.80746
  20618197.459    20618199.262   -26046667.65549 -20267173.82848
  21338493.388    21338496.082   -16719303.23949 -13001864.68347
  23088638.498    23088639.769   -13106795.55049 -10139019.13946
 09  1  1  3 45  0.0000000  0  7G 9G 4G28G32G17G20G11
  24255554.319    24255557.974    -4873865.18049  -3758466.62845
  21834863.089    21834865.511   -15201668.31849 -11801377.34347
  20630470.602    20630472.592   -27664944.16849 -21500755.03847
  22821178.567    22821181.519   -13770415.23149 -10685363.91846
  20612658.673    20612660.378   -26075774.36449 -20289854.37048
  21338787.905    21338790.703   -16717754.21749 -13000657.64747
  23106009.942    23106012.547   -13015500.18949 -10067879.94346
 09  1  1  3 45 30.0000000  0  7G 9G 4G28G32G17G20G11
  24254044.924    24254046.975    -4881802.06549  -3764651.24045
  21820739.626    21820742.472   -15275885.84149 -11859209.15247
  20638202.580    20638204.405   -27624313.22949 -21469094.58447
  22830109.294    22830112.709   -13723483.47249 -10648793.71546
  20607167.075    20607168.931   -26104632.53949 -20312341.25548
  21339198.980    21339201.446   -16715595.53949 -12998975.55447
  23123399.584    23123399.402   -12924127.33849  -9996680.35646
 09  1  1  3 46  0.0000000  0  7G 9G 4G28G32G17G20G11
  24252650.949    24252653.766    -4889124.31849  -3770356.90145
  21806680.499    21806683.339   -15349767.52049 -11916779.25147
  20646036.217    20646038.392   -27583146.19949 -21437016.39547
  22839133.767    22839138.355   -13676054.58449 -10611836.13346
  20601723.174    20601724.879   -26133240.73049 -20334633.36148
  21339725.565    21339728.158   -16712826.75849 -12996818.06247
  23140800.977    23140803.238   -12832677.96949  -9925421.15246
 09  1  1  3 46 30.0000000  0  7G 9G 4G28G32G17G20G11
  24251375.002    24251378.291    -4895832.65549  -3775584.15745
  21792685.408    21792688.095   -15423313.12949 -11974087.48647
  20653972.053    20653973.970   -27541444.56549 -21404521.63247
  22848254.652    22848257.977   -13628130.81449 -10574492.93346
  20596326.940    20596328.658   -26161598.85149 -20356730.60148
  21340368.860    21340371.378   -16709448.46949 -12994185.63047
  23158217.270    23158218.892   -12741154.37449  -9854104.08846
 09  1  1  3 47  0.0000000  0  7G 9G 4G28G32G17G20G11
  24250211.238    24250219.139    -4901928.50149  -3780334.19445
  21778753.842    21778756.436   -15496523.05349 -12031134.14847
  20662008.799    20662010.841   -27499210.36349 -21371611.88947
  22857467.395    22857470.684   -13579715.04549 -10536766.33946
  20590978.043    20590979.528   -26189707.23649 -20378633.23248
  21341127.395    21341129.721   -16705462.02749 -12991079.31747
  23175647.173    23175650.347   -12649558.98949  -9782731.09345
 09  1  1  3 47 30.0000000  0  7G 9G 4G28G32G17G20G11
  24249169.399    24249175.664    -4907409.78648  -3784605.31045
  21764886.882    21764890.069   -15569394.09549 -12087916.74247
  20670147.655    20670149.457   -27456441.95449 -21338285.87147
  22866774.302    22866778.256   -13530806.23049 -10498655.57546
  20585677.352    20585679.069   -26217562.13849 -20400338.34648
  21342002.399    21342004.269   -16700865.07749 -12987497.28647
  23193091.167    23193093.215   -12557890.43249  -9711301.06145
 09  1  1  3 48  0.0000000  0  7G 9G 4G28G32G17G20G11
  24248245.139    24248248.640    -4912277.19449  -3788398.13245
  21751084.767    21751087.836   -15641925.86449 -12144434.97447
  20678387.450    20678389.656   -27413140.33449 -21304544.36347
  22876174.864    22876178.151   -13481406.35449 -10460162.14946
  20580425.048    20580426.780   -26245163.04949 -20421845.54648
  21342993.123    21342995.392   -16695657.92649 -12983439.76347
  23210549.071    23210550.950   -12466150.25249  -9639815.23045
 09  1  1  3 48 30.0000000  0  7G 9G 4G28G32G17G20G11
  24247435.130    24247438.808    -4916531.85049  -3791713.41645
  21737346.658    21737349.974   -15714118.27049 -12200688.76847
  20686728.606    20686730.808   -27369307.14849 -21270388.65147
  22885668.661    22885671.548   -13431517.65549 -10421287.83746
  20575221.251    20575222.962   -26272509.76749 -20443154.66048
  21344099.597    21344102.289   -16689841.12649 -12978907.20147
  23228018.517    23228021.803   -12374340.87149  -9568275.47145
 09  1  1  3 49  0.0000000  0  7G 9G 4G28G32G17G20G11
  24246741.800    24246745.582    -4920179.49249  -3794555.72845
  21723672.944    21723676.066   -15785975.86949 -12256681.67347
  20695169.742    20695172.065   -27324948.66649 -21235823.61447
  22895253.596    22895256.704   -13381147.28149 -10382038.20046
  20570064.790    20570066.580   -26299606.64449 -20464269.09348
  21345321.401    21345324.166   -16683420.78149 -12973904.33847
  23245501.844    23245504.358   -12282468.48849  -9496686.60145
 09  1  1  3 49 30.0000000  0  7G 9G 4G28G32G17G20G11
  24246162.121    24246167.008    -4923216.47849  -3796922.22045
  21710062.876    21710066.194   -15857493.83549 -12312409.92747
  20703711.699    20703713.726   -27280061.29249 -21200846.45347
  22904931.316    22904934.492   -13330292.54949 -10342411.12746
  20564956.867    20564958.791   -26326448.47849 -20485184.80248
  21346658.956    21346661.658   -16676392.66049 -12968427.88447
  23262996.742    23262999.507   -12190530.61749  -9425046.70045
 09  1  1  3 50  0.0000000  0  7G 9G 4G28G32G17G20G11
  24245703.259    24245705.066    -4925640.76549  -3798811.31545
  21696518.913    21696521.931   -15928669.00549 -12367871.06847
  20712354.385    20712356.221   -27234643.79449 -21165456.21147
  22914700.743    22914703.720   -13278952.77949 -10302406.12246
  20559898.259    20559899.930   -26353031.75549 -20505899.03548
  21348112.559    21348114.833   -16668754.34149 -12962475.95347
  23280505.941    23280506.396   -12098525.84049  -9353354.68245
 09  1  1  3 50 30.0000000  0  7G 9G 4G28G32G17G20G11
  24245356.819    24245361.603    -4927451.31349  -3800222.11645
  21683040.813    21683043.513   -15999499.16249 -12423063.38347
  20721098.042    20721100.117   -27188695.54149 -21129652.38947
  22924562.626    22924566.116   -13227128.29949 -10262023.42746
  20554889.146    20554890.975   -26379354.17049 -20526409.99848
  21349682.482    21349684.929   -16660504.65549 -12956047.62947
  23298026.202    23298028.541   -12006454.32649  -9281610.63345
 09  1  1  3 51  0.0000000  0  7G 9G 4G28G32G17G20G11
  24245131.195    24245133.426    -4928650.28249  -3801156.36045
  21669627.289    21669630.287   -16069984.87349 -12477987.28947
  20729942.370    20729944.553   -27142218.55049 -21093436.57247
  22934515.705    22934519.902   -13174821.87249 -10221265.18446
  20549929.920    20549931.470   -26405416.04649 -20546717.95148
  21351368.335    21351370.851   -16651645.08149 -12949144.07547
  23315558.305    23315560.370   -11914318.24049  -9209816.27645
 09  1  1  3 51 30.0000000  0  7G 9G 4G28G32G17G20G11
  24245015.925    24245020.193    -4929238.76849  -3801614.96345
  21656279.480    21656283.003   -16140126.51749 -12532643.08347
  20738886.917    20738888.862   -27095214.76349 -21056810.25847
  22944560.971    22944563.999   -13122036.19949 -10180133.50546
  20545019.949    20545021.784   -26431217.36549 -20566822.84948
  21353170.268    21353172.665   -16642176.79849 -12941766.19447
  23333103.209    23333105.311   -11822119.89649  -9137973.41045
 09  1  1  3 52  0.0000000  0  7G 9G 4G28G32G17G20G11
  24245022.580    24245023.567    -4929217.32349  -3801598.27745
  21642997.984    21643000.797   -16209923.26649 -12587030.13947
  20747931.626    20747933.589   -27047685.20249 -21019774.25047
  22954695.725    22954699.562   -13068773.00349 -10138629.73146
  20540159.953    20540161.526   -26456756.95349 -20586723.81048
  21355087.501    21355090.260   -16632100.23549 -12933914.33447
  23350660.254    23350662.076   -11729860.76449  -9066083.18745
 09  1  1  3 52 30.0000000  0  7G 9G 4G28G32G17G20G11
  24245140.548    24245145.257    -4928586.86849  -3801107.01145
  21629781.784    21629784.549   -16279374.75549 -12641148.15147
  20757075.775    20757077.937   -26999631.05549 -20982329.47647
  22964922.875    22964926.421   -13015034.38949 -10096755.50746
  20535349.843    20535351.525   -26482034.27249 -20606420.41948
  21357120.813    21357123.564   -16621415.98049 -12925588.94247
  23368227.433    23368229.572   -11637542.13349  -8994146.60745
 09  1  1  3 53  0.0000000  0  7G 9G 4G28G32G17G20G11
  24245377.954    24245377.984    -4927348.12149  -3800141.78645
  21616631.447    21616634.408   -16348480.38849 -12694996.66547
  20766319.876    20766321.737   -26951053.70149 -20944477.00747
  22975238.793    22975242.149   -12960822.02049 -10054512.12246
  20530590.008    20530591.422   -26507048.32049 -20625911.88048
  21359269.605    21359271.834   -16610124.28749 -12916790.21947
  23385804.684    23385809.115   -11545165.38849  -8922164.71945
 09  1  1  3 53 30.0000000  0  7G 9G 4G28G32G17G20G11
  24245728.322    24245731.956    -4925501.95949  -3798703.20145
  21603546.706    21603549.531   -16417239.80249 -12748575.40647
  20775663.088    20775665.052   -26901954.29549 -20906217.74347
  22985644.859    22985648.531   -12906138.02949 -10011901.23446
  20525880.119    20525881.820   -26531798.26149 -20645197.54748
  21361533.668    21361536.033   -16598225.78649 -12907518.65847
  23403395.966    23403397.417   -11452731.76449  -8850138.52645
 09  1  1  3 54  0.0000000  0  7G 9G 4G28G32G17G20G11
  24246194.619    24246200.623    -4923049.15049  -3796791.96645
  21590528.548    21590531.204   -16485652.26349 -12801883.77947
  20785105.711    20785107.531   -26852333.56749 -20867552.25547
  22996140.323    22996144.593   -12850983.94549  -9968924.03946
  20521220.685    20521222.474   -26556283.03149 -20664276.58848
  21363913.241    21363915.902   -16585720.68149 -12897774.41647
  23420995.192    23420998.203   -11360242.40549  -8778068.92145
 09  1  1  3 54 30.0000000  0  7G 9G 4G28G32G17G20G11
  24246774.777    24246780.631    -4919990.62849  -3794408.65545
  21577575.925    21577578.992   -16553717.41949 -12854921.52547
  20794647.115    20794648.899   -26802193.16949 -20828481.82547
  23006724.736    23006728.821   -12795362.06249  -9925582.33546
  20516612.095    20516613.745   -26580502.07649 -20683148.56148
  21366407.934    21366410.590   -16572609.94149 -12887558.24847
  23438606.590    23438607.927   -11267698.98949  -8705957.20045
 09  1  1  3 55  0.0000000  0  8G 9G 4G 2G28G32G17G20G11
  24247474.223    24247479.324    -4916326.52949  -3791553.54245
  21564689.826    21564692.717   -16621433.95349 -12907687.62047
  25416753.578    25416756.315    -1468274.99549  -1116276.19845
  20804287.362    20804289.365   -26751533.35649 -20789006.65847
  23017398.607    23017401.200   -12739273.42049  -9881876.91146
  20512054.140    20512055.834   -26604453.51449 -20701812.01548
  21369018.676    21369020.988   -16558893.40049 -12876870.02647
  23456226.772    23456228.478   -11175102.02549  -8633803.75545
 09  1  1  3 55 30.0000000  0  8G 9G 4G 2G28G32G17G20G11
  24248286.331    24248289.380    -4912058.17349  -3788227.55645
  21551870.251    21551873.306   -16688801.54549 -12960181.80447
  25398836.331    25398839.110    -1562432.95449  -1189646.04845
  20814026.000    20814028.134   -26700355.85249 -20749128.09247
  23028160.077    23028162.977   -12682720.15749  -9837809.44046
  20507547.480    20507549.257   -26628136.60649 -20720266.37648
  21371743.730    21371746.189   -16544571.47649 -12865710.08347
  23473857.836    23473859.372   -11082453.14749  -8561609.86545
 09  1  1  3 56  0.0000000  0  8G 9G 4G 2G28G32G17G20G11
  24249214.188    24249216.094    -4907186.62649  -3784431.57745
  21539117.110    21539120.287   -16755820.13549 -13012404.04847
  25380931.677    25380933.963    -1656515.01949  -1262956.73545
  20823863.090    20823865.321   -26648661.63549 -20708846.89247
  23039009.566    23039012.905   -12625704.47549  -9793381.64846
  20503091.845    20503093.504   -26651550.95449 -20738511.32348
  21374584.053    21374586.689   -16529645.16249 -12854079.17147
  23491497.385    23491499.353   -10989753.66949  -8489376.54945
 09  1  1  3 56 30.0000000  0  8G 9G 4G 2G28G32G17G20G11
  24250256.447    24250259.444    -4901712.48149  -3780166.00745
  21526430.612    21526433.688   -16822488.92049 -13064353.71447
  25363044.380    25363045.603    -1750520.65349  -1336207.89245
  20833798.062    20833800.380   -26596452.34449 -20668164.34147
  23049946.924    23049950.352   -12568228.32949  -9748595.04746
  20498687.684    20498689.225   -26674695.47649 -20756546.01548
  21377539.258    21377541.815   -16514115.04649 -12841977.77047
  23509148.205    23509148.542   -10897004.98949  -8417104.89145
 09  1  1  3 57  0.0000000  0  8G 9G 4G 2G28G32G17G20G11
  24251411.487    24251412.720    -4895636.84449  -3775431.78545
  21513810.279    21513813.441   -16888807.68349 -13116030.64247
  25345169.434    25345171.397    -1844449.17049  -1409398.92845
  20843830.796    20843833.450   -26543729.27349 -20627081.43347
  23060971.851    23060975.224   -12510293.78949  -9703451.25246
  20494334.817    20494336.715   -26697569.37649 -20774369.83048
  21380609.672    21380611.827   -16497981.78449 -12829406.37847
  23526805.471    23526807.927   -10804208.36949  -8344795.87145
 09  1  1  3 57 30.0000000  0  8G 9G 4G 2G28G32G17G20G11
  24252682.697    24252684.650    -4888961.64349  -3770230.32545
  21501256.890    21501259.832   -16954776.90249 -13167435.19547
  25327309.718    25327311.203    -1938300.77249  -1482530.04845
  20853961.083    20853963.527   -26490494.47249 -20585599.78247
  23072082.789    23072086.355   -12451903.75249  -9657952.52746
  20490033.695    20490035.266   -26720172.64349 -20791982.76048
  21383793.858    21383796.708   -16481247.49149 -12816366.65647
  23544472.961    23544475.652   -10711366.01749  -8272451.22845
 09  1  1  3 58  0.0000000  0  8G 9G 4G 2G28G32G17G20G11
  24254064.650    24254069.852    -4881685.55949  -3764560.68445
  21488770.594    21488773.169   -17020393.57849 -13218565.05447
  25309465.412    25309469.175    -2032072.54849  -1555598.95245
  20864189.312    20864191.225   -26436747.12949 -20543718.73947
  23083280.967    23083284.259   -12393057.70149  -9612098.47146
  20485784.616    20485786.242   -26742501.87849 -20809382.15848
  21387092.984    21387095.517   -16463909.95049 -12802856.86247
  23562148.034    23562151.286   -10618476.68849  -8200069.96845
 09  1  1  3 58 30.0000000  0  8G 9G 4G 2G28G32G17G20G11
  24255564.512    24255569.691    -4873809.61449  -3758423.59345
  21476351.062    21476353.990   -17085657.35049 -13269419.92347
  25291636.155    25291638.843    -2125763.59849  -1628604.95545
  20874514.254    20874516.064   -26382488.61449 -20501439.38947
  23094564.526    23094568.927   -12333757.79649  -9565890.75546
  20481587.642    20481589.273   -26764556.28849 -20826567.42248
  21390506.600    21390509.440   -16445969.92949 -12788877.60547
  23579834.560    23579837.387   -10525541.47449  -8127652.96045
 09  1  1  3 59  0.0000000  0  8G 9G 4G 2G28G32G17G20G11
  24257176.766    24257181.428    -4865335.71149  -3751820.58945
  21463998.803    21464001.580   -17150568.60249 -13320000.10447
  25273822.457    25273826.248    -2219374.21949  -1701548.29745
  20884935.730    20884938.335   -26327720.98649 -20458763.32147
  23105935.564    23105939.667   -12274006.75349  -9519331.50046
  20477443.401    20477444.972   -26786335.55649 -20843538.28848
  21394034.768    21394037.781   -16427429.13549 -12774430.21547
  23597528.791    23597529.350   -10432562.67349  -8055201.97345
